{
  "type": "FeatureCollection",
  "when": {
    "timespan": [
      "1368",
      "",
      "",
      "1644",
      "Late Ming Dynasty"
    ]
  },
  "attributes": {
    "title": "Ming Dynasty Courier Routes and Postal Stations",
    "pub_date": "2014",
    "places": "places_courier.csv",
    "uri": "https://github.com/kgeographer/topotime/tree/master/data/source/courier/README_Ming_Courier_Routes_Stations_2014.txt",
    "description": "The Late Ming Dynasty Courier Stations and Routes were compiled primarily from the \"Mingdai Yizhankao\" by YANG Zhengtai, supplemented for some areas with information derived from the 1908 Postal Atlas. The Courier Stations and Routes were developed for use in an online network analyst application, which calculates the shortest route between selected postal stations on the fly:    http://maps.cga.harvard.edu/chinapostoffice/",
    "timespan": "[1368,,,1644,Late Ming Dynasty]",
    "contributors": "[Lex Berman (CGA, Harvard Univ)"
  },
  "features": [
    {
      "type": "Feature",
      "label": "\u4e91\u5357\u5e9c",
      "geometry": {
        "type": "Point",
        "coordinates": [
          102.71035,
          25.04591
        ]
      },
      "properties": {
        "gazetteer_label": "YUNNANFU Yunnan (\u4e91\u5357\u5e9c)",
        "status": "L",
        "comment": "",
        "gazetteer_uri": "",
        "collection": "courier",
        "source": "PA_1903"
      },
      "id": "1"
    },
    {
      "type": "Feature",
      "label": "\u6768\u6797",
      "geometry": {
        "type": "Point",
        "coordinates": [
          103.06189,
          25.22011
        ]
      },
      "properties": {
        "gazetteer_label": "YANGLIN Yunnan (\u6768\u6797)",
        "status": "L",
        "comment": "",
        "gazetteer_uri": "",
        "collection": "courier",
        "source": "PA_1903"
      },
      "id": "2"
    },
    {
      "type": "Feature",
      "label": "\u5bfb\u7538",
      "geometry": {
        "type": "Point",
        "coordinates": [
          103.25372,
          25.5622
        ]
      },
      "properties": {
        "gazetteer_label": "XUNDIAN GUCHENG Yunnan (\u5bfb\u7538)",
        "status": "B",
        "comment": "",
        "gazetteer_uri": "",
        "collection": "courier",
        "source": "PA_1903"
      },
      "id": "3"
    },
    {
      "type": "Feature",
      "label": "\u9a6c\u9f99",
      "geometry": {
        "type": "Point",
        "coordinates": [
          103.58021,
          25.42843
        ]
      },
      "properties": {
        "gazetteer_label": "MALONG Yunnan (\u9a6c\u9f99)",
        "status": "B",
        "comment": "",
        "gazetteer_uri": "",
        "collection": "courier",
        "source": "PA_1903"
      },
      "id": "4"
    },
    {
      "type": "Feature",
      "label": "\u5357\u5b81\u53bf",
      "geometry": {
        "type": "Point",
        "coordinates": [
          103.79678,
          25.49584
        ]
      },
      "properties": {
        "gazetteer_label": "NANNING XIAN Yunnan (\u5357\u5b81\u53bf)",
        "status": "L",
        "comment": "",
        "gazetteer_uri": "",
        "collection": "courier",
        "source": "PA_1903"
      },
      "id": "5"
    },
    {
      "type": "Feature",
      "label": "\u6cbe\u76ca",
      "geometry": {
        "type": "Point",
        "coordinates": [
          103.82211,
          25.60993
        ]
      },
      "properties": {
        "gazetteer_label": "ZHANYI Yunnan (\u6cbe\u76ca)",
        "status": "B",
        "comment": "",
        "gazetteer_uri": "",
        "collection": "courier",
        "source": "PA_1903"
      },
      "id": "6"
    },
    {
      "type": "Feature",
      "label": "\u5170\u6cc9\u9a7f",
      "geometry": {
        "type": "Point",
        "coordinates": [
          103.84714,
          36.04703
        ]
      },
      "properties": {
        "gazetteer_label": "LANQUANYI Gansu (\u5170\u6cc9\u9a7f)",
        "status": "Y",
        "comment": "",
        "gazetteer_uri": "",
        "collection": "courier",
        "source": "MDYZK"
      },
      "id": "7"
    },
    {
      "type": "Feature",
      "label": "\u9526\u5b98\u9a7f",
      "geometry": {
        "type": "Point",
        "coordinates": [
          104.078,
          30.65038
        ]
      },
      "properties": {
        "gazetteer_label": "JINGUANYI Sichuan (\u9526\u5b98\u9a7f)",
        "status": "N",
        "comment": "",
        "gazetteer_uri": "",
        "collection": "courier",
        "source": "MDYZK"
      },
      "id": "8"
    },
    {
      "type": "Feature",
      "label": "\u6e05\u6c34\u9a7f",
      "geometry": {
        "type": "Point",
        "coordinates": [
          104.10787,
          35.84682
        ]
      },
      "properties": {
        "gazetteer_label": "QINGSHUI Gansu (\u6e05\u6c34\u9a7f)",
        "status": "Y",
        "comment": "",
        "gazetteer_uri": "",
        "collection": "courier",
        "source": "MDYZK"
      },
      "id": "9"
    },
    {
      "type": "Feature",
      "label": "\u65b0\u90fd\u9a7f",
      "geometry": {
        "type": "Point",
        "coordinates": [
          104.16055,
          30.83139
        ]
      },
      "properties": {
        "gazetteer_label": "XINDU Sichuan (\u65b0\u90fd\u9a7f)",
        "status": "Y",
        "comment": "",
        "gazetteer_uri": "",
        "collection": "courier",
        "source": "MDYZK"
      },
      "id": "10"
    },
    {
      "type": "Feature",
      "label": "\u5ef6\u5bff\u9a7f",
      "geometry": {
        "type": "Point",
        "coordinates": [
          104.62031,
          35.57509
        ]
      },
      "properties": {
        "gazetteer_label": "YANSHOUYI Gansu (\u5ef6\u5bff\u9a7f)",
        "status": "N",
        "comment": "",
        "gazetteer_uri": "",
        "collection": "courier",
        "source": "MDYZK"
      },
      "id": "12"
    },
    {
      "type": "Feature",
      "label": "\u666e\u5b89",
      "geometry": {
        "type": "Point",
        "coordinates": [
          104.64989,
          25.79314
        ]
      },
      "properties": {
        "gazetteer_label": "PU'AN Guizhou (\u666e\u5b89)",
        "status": "Y",
        "comment": "",
        "gazetteer_uri": "",
        "collection": "courier",
        "source": "MDYZK"
      },
      "id": "13"
    },
    {
      "type": "Feature",
      "label": "\u91d1\u5c71\u9a7f",
      "geometry": {
        "type": "Point",
        "coordinates": [
          104.7493,
          31.45901
        ]
      },
      "properties": {
        "gazetteer_label": "JINSHANYI Sichuan (\u91d1\u5c71\u9a7f)",
        "status": "Y",
        "comment": "",
        "gazetteer_uri": "",
        "collection": "courier",
        "source": "MDYZK"
      },
      "id": "14"
    },
    {
      "type": "Feature",
      "label": "\u65b0\u5174\u9a7f",
      "geometry": {
        "type": "Point",
        "coordinates": [
          104.95208,
          25.78841
        ]
      },
      "properties": {
        "gazetteer_label": "XINXING Guizhou (\u65b0\u5174\u9a7f)",
        "status": "Y",
        "comment": "",
        "gazetteer_uri": "",
        "collection": "courier",
        "source": "MDYZK"
      },
      "id": "15"
    },
    {
      "type": "Feature",
      "label": "\u4fdd\u5b81\u9a7f",
      "geometry": {
        "type": "Point",
        "coordinates": [
          105.05614,
          35.6942
        ]
      },
      "properties": {
        "gazetteer_label": "BAONINGYI Gansu (\u4fdd\u5b81\u9a7f)",
        "status": "N",
        "comment": "",
        "gazetteer_uri": "",
        "collection": "courier",
        "source": "MDYZK"
      },
      "id": "16"
    },
    {
      "type": "Feature",
      "label": "\u5c3e\u9152\u9a7f",
      "geometry": {
        "type": "Point",
        "coordinates": [
          105.21588,
          25.83347
        ]
      },
      "properties": {
        "gazetteer_label": "WEIJIUYI Guizhou (\u5c3e\u9152\u9a7f)",
        "status": "L",
        "comment": "",
        "gazetteer_uri": "",
        "collection": "courier",
        "source": "MDYZK"
      },
      "id": "17"
    },
    {
      "type": "Feature",
      "label": "\u67e5\u57ce",
      "geometry": {
        "type": "Point",
        "coordinates": [
          105.48582,
          25.91021
        ]
      },
      "properties": {
        "gazetteer_label": "CHACHENG Guizhou (\u67e5\u57ce)",
        "status": "Y",
        "comment": "",
        "gazetteer_uri": "",
        "collection": "courier",
        "source": "MDYZK"
      },
      "id": "18"
    },
    {
      "type": "Feature",
      "label": "\u6cfe\u9633\u9a7f",
      "geometry": {
        "type": "Point",
        "coordinates": [
          105.72882,
          35.5241
        ]
      },
      "properties": {
        "gazetteer_label": "JINGYANG Gansu (\u6cfe\u9633\u9a7f)",
        "status": "Y",
        "comment": "",
        "gazetteer_uri": "",
        "collection": "courier",
        "source": "MDYZK"
      },
      "id": "19"
    },
    {
      "type": "Feature",
      "label": "\u5b89\u5e84\u9a7f",
      "geometry": {
        "type": "Point",
        "coordinates": [
          105.76356,
          26.0546
        ]
      },
      "properties": {
        "gazetteer_label": "ANZHUANG Guizhou (\u5b89\u5e84\u9a7f)",
        "status": "Y",
        "comment": "",
        "gazetteer_uri": "",
        "collection": "courier",
        "source": "MDYZK"
      },
      "id": "20"
    },
    {
      "type": "Feature",
      "label": "\u95ee\u6d25\u9a7f",
      "geometry": {
        "type": "Point",
        "coordinates": [
          105.83299,
          32.44389
        ]
      },
      "properties": {
        "gazetteer_label": "WENJINYI Sichuan (\u95ee\u6d25\u9a7f)",
        "status": "Y",
        "comment": "",
        "gazetteer_uri": "",
        "collection": "courier",
        "source": "MDYZK"
      },
      "id": "21"
    },
    {
      "type": "Feature",
      "label": "\u666e\u5229\u9a7f",
      "geometry": {
        "type": "Point",
        "coordinates": [
          105.92786,
          26.24324
        ]
      },
      "properties": {
        "gazetteer_label": "PULIYI Guizhou (\u666e\u5229\u9a7f)",
        "status": "N",
        "comment": "",
        "gazetteer_uri": "",
        "collection": "courier",
        "source": "MDYZK"
      },
      "id": "22"
    },
    {
      "type": "Feature",
      "label": "\u9686\u57ce\u9a7f",
      "geometry": {
        "type": "Point",
        "coordinates": [
          106.12224,
          35.61709
        ]
      },
      "properties": {
        "gazetteer_label": "LONGCHENG Ningxia (\u9686\u57ce\u9a7f)",
        "status": "Y",
        "comment": "",
        "gazetteer_uri": "",
        "collection": "courier",
        "source": "MDYZK"
      },
      "id": "23"
    },
    {
      "type": "Feature",
      "label": "\u5e73\u575d\u9a7f",
      "geometry": {
        "type": "Point",
        "coordinates": [
          106.26086,
          26.41779
        ]
      },
      "properties": {
        "gazetteer_label": "PINGBA Guizhou (\u5e73\u575d\u9a7f)",
        "status": "Y",
        "comment": "",
        "gazetteer_uri": "",
        "collection": "courier",
        "source": "MDYZK"
      },
      "id": "24"
    },
    {
      "type": "Feature",
      "label": "\u5a01\u6e05\u9a7f",
      "geometry": {
        "type": "Point",
        "coordinates": [
          106.46762,
          26.55605
        ]
      },
      "properties": {
        "gazetteer_label": "WEIQING Guizhou (\u5a01\u6e05\u9a7f)",
        "status": "Y",
        "comment": "",
        "gazetteer_uri": "",
        "collection": "courier",
        "source": "MDYZK"
      },
      "id": "25"
    },
    {
      "type": "Feature",
      "label": "\u51e4\u53bf",
      "geometry": {
        "type": "Point",
        "coordinates": [
          106.62294,
          33.94525
        ]
      },
      "properties": {
        "gazetteer_label": "FENGXIANG Shaanxi (\u51e4\u53bf)",
        "status": "N",
        "comment": "",
        "gazetteer_uri": "",
        "collection": "courier",
        "source": "MDYZK"
      },
      "id": "26"
    },
    {
      "type": "Feature",
      "label": "\u74e6\u4ead\u9a7f",
      "geometry": {
        "type": "Point",
        "coordinates": [
          106.31997,
          35.69139
        ]
      },
      "properties": {
        "gazetteer_label": "WATING Ningxia (\u74e6\u4ead\u9a7f)",
        "status": "Y",
        "comment": "",
        "gazetteer_uri": "",
        "collection": "courier",
        "source": "MDYZK"
      },
      "id": "27"
    },
    {
      "type": "Feature",
      "label": "\u9ad8\u5e73\u9a7f",
      "geometry": {
        "type": "Point",
        "coordinates": [
          106.68566,
          35.53585
        ]
      },
      "properties": {
        "gazetteer_label": "GAOPING Gansu (\u9ad8\u5e73\u9a7f)",
        "status": "Y",
        "comment": "",
        "gazetteer_uri": "",
        "collection": "courier",
        "source": "MDYZK"
      },
      "id": "28"
    },
    {
      "type": "Feature",
      "label": "\u8d35\u5dde\u9a7f",
      "geometry": {
        "type": "Point",
        "coordinates": [
          106.70911,
          26.58078
        ]
      },
      "properties": {
        "gazetteer_label": "HUANGHUA Guizhou (\u8d35\u5dde\u9a7f)",
        "status": "N",
        "comment": "",
        "gazetteer_uri": "",
        "collection": "courier",
        "source": "MDYZK"
      },
      "id": "29"
    },
    {
      "type": "Feature",
      "label": "\u52c9\u53bf",
      "geometry": {
        "type": "Point",
        "coordinates": [
          106.7748,
          33.1379
        ]
      },
      "properties": {
        "gazetteer_label": "MIANXIAN Shaanxi (\u52c9\u53bf)",
        "status": "L",
        "comment": "",
        "gazetteer_uri": "",
        "collection": "courier",
        "source": "PA_1903"
      },
      "id": "30"
    },
    {
      "type": "Feature",
      "label": "\u8912\u57ce",
      "geometry": {
        "type": "Point",
        "coordinates": [
          106.96926,
          33.20039
        ]
      },
      "properties": {
        "gazetteer_label": "BAOCHENG Shaanxi (\u8912\u57ce)",
        "status": "Y",
        "comment": "",
        "gazetteer_uri": "",
        "collection": "courier",
        "source": "MDYZK"
      },
      "id": "31"
    },
    {
      "type": "Feature",
      "label": "\u9f99\u91cc\u9a7f",
      "geometry": {
        "type": "Point",
        "coordinates": [
          106.98106,
          26.45834
        ]
      },
      "properties": {
        "gazetteer_label": "LONGLI Guizhou (\u9f99\u91cc\u9a7f)",
        "status": "Y",
        "comment": "",
        "gazetteer_uri": "",
        "collection": "courier",
        "source": "MDYZK"
      },
      "id": "32"
    },
    {
      "type": "Feature",
      "label": "\u9648\u4ed3\u9a7f",
      "geometry": {
        "type": "Point",
        "coordinates": [
          107.14039,
          34.38187
        ]
      },
      "properties": {
        "gazetteer_label": "CHENCANG Shaanxi (\u9648\u4ed3\u9a7f)",
        "status": "Y",
        "comment": "",
        "gazetteer_uri": "",
        "collection": "courier",
        "source": "MDYZK"
      },
      "id": "33"
    },
    {
      "type": "Feature",
      "label": "\u767d\u6c34\u9a7f",
      "geometry": {
        "type": "Point",
        "coordinates": [
          106.97579,
          35.42942
        ]
      },
      "properties": {
        "gazetteer_label": "BAISHUI Gansu (\u767d\u6c34\u9a7f)",
        "status": "Y",
        "comment": "",
        "gazetteer_uri": "",
        "collection": "courier",
        "source": "MDYZK"
      },
      "id": "34"
    },
    {
      "type": "Feature",
      "label": "\u65b0\u6dfb\u9a7f",
      "geometry": {
        "type": "Point",
        "coordinates": [
          107.23962,
          26.58565
        ]
      },
      "properties": {
        "gazetteer_label": "XINTIAN Guizhou (\u65b0\u6dfb\u9a7f)",
        "status": "Y",
        "comment": "",
        "gazetteer_uri": "",
        "collection": "courier",
        "source": "MDYZK"
      },
      "id": "35"
    },
    {
      "type": "Feature",
      "label": "\u74e6\u4e91\u9a7f",
      "geometry": {
        "type": "Point",
        "coordinates": [
          107.36339,
          35.32881
        ]
      },
      "properties": {
        "gazetteer_label": "WAYUN Gansu (\u74e6\u4e91\u9a7f)",
        "status": "Y",
        "comment": "",
        "gazetteer_uri": "",
        "collection": "courier",
        "source": "MDYZK"
      },
      "id": "36"
    },
    {
      "type": "Feature",
      "label": "\u5c90\u5468\u9a7f",
      "geometry": {
        "type": "Point",
        "coordinates": [
          107.62709,
          34.43964
        ]
      },
      "properties": {
        "gazetteer_label": "QIZHOU Shaanxi (\u5c90\u5468\u9a7f)",
        "status": "Y",
        "comment": "",
        "gazetteer_uri": "",
        "collection": "courier",
        "source": "MDYZK"
      },
      "id": "37"
    },
    {
      "type": "Feature",
      "label": "\u6e05\u5e73\u9a7f",
      "geometry": {
        "type": "Point",
        "coordinates": [
          107.78898,
          26.65832
        ]
      },
      "properties": {
        "gazetteer_label": "QINGPING Guizhou (\u6e05\u5e73\u9a7f)",
        "status": "Y",
        "comment": "",
        "gazetteer_uri": "",
        "collection": "courier",
        "source": "MDYZK"
      },
      "id": "38"
    },
    {
      "type": "Feature",
      "label": "\u5b9c\u7984\u9a7f",
      "geometry": {
        "type": "Point",
        "coordinates": [
          107.78932,
          35.20544
        ]
      },
      "properties": {
        "gazetteer_label": "YILUYI Shaanxi (\u5b9c\u7984\u9a7f)",
        "status": "N",
        "comment": "",
        "gazetteer_uri": "",
        "collection": "courier",
        "source": "MDYZK"
      },
      "id": "39"
    },
    {
      "type": "Feature",
      "label": "\u51e4\u6cc9\u9a7f",
      "geometry": {
        "type": "Point",
        "coordinates": [
          107.86849,
          34.36182
        ]
      },
      "properties": {
        "gazetteer_label": "FENGQUAN Shaanxi (\u51e4\u6cc9\u9a7f)",
        "status": "Y",
        "comment": "",
        "gazetteer_uri": "",
        "collection": "courier",
        "source": "MDYZK"
      },
      "id": "40"
    },
    {
      "type": "Feature",
      "label": "\u6c38\u5b89\u9a7f",
      "geometry": {
        "type": "Point",
        "coordinates": [
          108.04397,
          34.81275
        ]
      },
      "properties": {
        "gazetteer_label": "YONG'AN Shaanxi (\u6c38\u5b89\u9a7f)",
        "status": "Y",
        "comment": "",
        "gazetteer_uri": "",
        "collection": "courier",
        "source": "MDYZK"
      },
      "id": "42"
    },
    {
      "type": "Feature",
      "label": "\u65b0\u5e73\u9a7f",
      "geometry": {
        "type": "Point",
        "coordinates": [
          108.07799,
          35.03966
        ]
      },
      "properties": {
        "gazetteer_label": "XINPING Shaanxi (\u65b0\u5e73\u9a7f)",
        "status": "Y",
        "comment": "",
        "gazetteer_uri": "",
        "collection": "courier",
        "source": "MDYZK"
      },
      "id": "43"
    },
    {
      "type": "Feature",
      "label": "\u90b0\u57ce\u9a7f",
      "geometry": {
        "type": "Point",
        "coordinates": [
          108.1051,
          34.33205
        ]
      },
      "properties": {
        "gazetteer_label": "TAICHENGYI Shaanxi (\u90b0\u57ce\u9a7f)",
        "status": "N",
        "comment": "",
        "gazetteer_uri": "",
        "collection": "courier",
        "source": "MDYZK"
      },
      "id": "44"
    },
    {
      "type": "Feature",
      "label": "\u504f\u6865\u9a7f",
      "geometry": {
        "type": "Point",
        "coordinates": [
          108.11893,
          27.03727
        ]
      },
      "properties": {
        "gazetteer_label": "PIANQIAO Guizhou (\u504f\u6865\u9a7f)",
        "status": "Y",
        "comment": "",
        "gazetteer_uri": "",
        "collection": "courier",
        "source": "MDYZK"
      },
      "id": "45"
    },
    {
      "type": "Feature",
      "label": "\u5a01\u80dc\u9a7f",
      "geometry": {
        "type": "Point",
        "coordinates": [
          108.2356,
          34.5303
        ]
      },
      "properties": {
        "gazetteer_label": "WEISHENG Shaanxi (\u5a01\u80dc\u9a7f)",
        "status": "Y",
        "comment": "",
        "gazetteer_uri": "",
        "collection": "courier",
        "source": "MDYZK"
      },
      "id": "46"
    },
    {
      "type": "Feature",
      "label": "\u9547\u8fdc\u9a7f",
      "geometry": {
        "type": "Point",
        "coordinates": [
          108.41845,
          27.05426
        ]
      },
      "properties": {
        "gazetteer_label": "ZHENYUAN Guizhou (\u9547\u8fdc\u9a7f)",
        "status": "Y",
        "comment": "",
        "gazetteer_uri": "",
        "collection": "courier",
        "source": "MDYZK"
      },
      "id": "47"
    },
    {
      "type": "Feature",
      "label": "\u767d\u6e20\u9a7f",
      "geometry": {
        "type": "Point",
        "coordinates": [
          108.4826,
          34.29872
        ]
      },
      "properties": {
        "gazetteer_label": "BAIQU Shaanxi (\u767d\u6e20\u9a7f)",
        "status": "Y",
        "comment": "",
        "gazetteer_uri": "",
        "collection": "courier",
        "source": "MDYZK"
      },
      "id": "48"
    },
    {
      "type": "Feature",
      "label": "\u5e97\u5f20",
      "geometry": {
        "type": "Point",
        "coordinates": [
          108.5271,
          34.42854
        ]
      },
      "properties": {
        "gazetteer_label": "DIANZHANG Shaanxi (\u5e97\u5f20)",
        "status": "L",
        "comment": "",
        "gazetteer_uri": "",
        "collection": "courier",
        "source": "PA_1903"
      },
      "id": "49"
    },
    {
      "type": "Feature",
      "label": "\u6e05\u6d6a\u536b",
      "geometry": {
        "type": "Point",
        "coordinates": [
          108.73038,
          27.12668
        ]
      },
      "properties": {
        "gazetteer_label": "QINGLANG Guizhou (\u6e05\u6d6a\u536b)",
        "status": "Y",
        "comment": "",
        "gazetteer_uri": "",
        "collection": "courier",
        "source": "MDYZK"
      },
      "id": "50"
    },
    {
      "type": "Feature",
      "label": "\u5e73\u6eaa\u9a7f",
      "geometry": {
        "type": "Point",
        "coordinates": [
          108.91154,
          27.23593
        ]
      },
      "properties": {
        "gazetteer_label": "PINGXI Guizhou (\u5e73\u6eaa\u9a7f)",
        "status": "Y",
        "comment": "",
        "gazetteer_uri": "",
        "collection": "courier",
        "source": "MDYZK"
      },
      "id": "51"
    },
    {
      "type": "Feature",
      "label": "\u4eac\u5146\u9a7f",
      "geometry": {
        "type": "Point",
        "coordinates": [
          108.94421,
          34.26661
        ]
      },
      "properties": {
        "gazetteer_label": "JINGZHAO Shaanxi (\u4eac\u5146\u9a7f)",
        "status": "Y",
        "comment": "",
        "gazetteer_uri": "",
        "collection": "courier",
        "source": "MDYZK"
      },
      "id": "52"
    },
    {
      "type": "Feature",
      "label": "\u6643\u5dde\u9a7f",
      "geometry": {
        "type": "Point",
        "coordinates": [
          109.19851,
          27.3817
        ]
      },
      "properties": {
        "gazetteer_label": "HUANGZHOU Hunan (\u6643\u5dde\u9a7f)",
        "status": "Y",
        "comment": "",
        "gazetteer_uri": "",
        "collection": "courier",
        "source": "MDYZK"
      },
      "id": "53"
    },
    {
      "type": "Feature",
      "label": "\u65b0\u4e30\u9a7f",
      "geometry": {
        "type": "Point",
        "coordinates": [
          109.2383,
          34.43141
        ]
      },
      "properties": {
        "gazetteer_label": "XINFENG Shaanxi (\u65b0\u4e30\u9a7f)",
        "status": "Y",
        "comment": "",
        "gazetteer_uri": "",
        "collection": "courier",
        "source": "MDYZK"
      },
      "id": "54"
    },
    {
      "type": "Feature",
      "label": "\u4e30\u539f\u9a7f",
      "geometry": {
        "type": "Point",
        "coordinates": [
          109.50124,
          34.503
        ]
      },
      "properties": {
        "gazetteer_label": "FENGYUAN Shaanxi (\u4e30\u539f\u9a7f)",
        "status": "Y",
        "comment": "",
        "gazetteer_uri": "",
        "collection": "courier",
        "source": "MDYZK"
      },
      "id": "55"
    },
    {
      "type": "Feature",
      "label": "\u534e\u5c71\u9a7f",
      "geometry": {
        "type": "Point",
        "coordinates": [
          110.0784,
          34.53443
        ]
      },
      "properties": {
        "gazetteer_label": "HUASHAN Shaanxi (\u534e\u5c71\u9a7f)",
        "status": "Y",
        "comment": "",
        "gazetteer_uri": "",
        "collection": "courier",
        "source": "MDYZK"
      },
      "id": "56"
    },
    {
      "type": "Feature",
      "label": "\u6f7c\u6d25\u9a7f",
      "geometry": {
        "type": "Point",
        "coordinates": [
          110.08936,
          34.56831
        ]
      },
      "properties": {
        "gazetteer_label": "TONGJIN Shaanxi (\u6f7c\u6d25\u9a7f)",
        "status": "Y",
        "comment": "",
        "gazetteer_uri": "",
        "collection": "courier",
        "source": "MDYZK"
      },
      "id": "57"
    },
    {
      "type": "Feature",
      "label": "\u8239\u6eaa\u9a7f",
      "geometry": {
        "type": "Point",
        "coordinates": [
          110.15422,
          28.28003
        ]
      },
      "properties": {
        "gazetteer_label": "CHUANXIYI Hunan (\u8239\u6eaa\u9a7f)",
        "status": "Y",
        "comment": "",
        "gazetteer_uri": "",
        "collection": "courier",
        "source": "MDYZK"
      },
      "id": "58"
    },
    {
      "type": "Feature",
      "label": "\u8fb0\u9633\u6c34\u9a7f",
      "geometry": {
        "type": "Point",
        "coordinates": [
          110.18265,
          28.01848
        ]
      },
      "properties": {
        "gazetteer_label": "CHENYANGSHUIYI Hunan (\u8fb0\u9633\u6c34\u9a7f)",
        "status": "Y",
        "comment": "",
        "gazetteer_uri": "",
        "collection": "courier",
        "source": "MDYZK"
      },
      "id": "59"
    },
    {
      "type": "Feature",
      "label": "\u6f7c\u5173\u9a7f",
      "geometry": {
        "type": "Point",
        "coordinates": [
          110.27365,
          34.59881
        ]
      },
      "properties": {
        "gazetteer_label": "TONGGUAN Shaanxi (\u6f7c\u5173\u9a7f)",
        "status": "Y",
        "comment": "",
        "gazetteer_uri": "",
        "collection": "courier",
        "source": "MDYZK"
      },
      "id": "60"
    },
    {
      "type": "Feature",
      "label": "\u4e1c\u6c5f\u9a7f",
      "geometry": {
        "type": "Point",
        "coordinates": [
          110.28626,
          25.28006
        ]
      },
      "properties": {
        "gazetteer_label": "DONGJIANG Guangxi (\u4e1c\u6c5f\u9a7f)",
        "status": "Y",
        "comment": "",
        "gazetteer_uri": "",
        "collection": "courier",
        "source": "MDYZK"
      },
      "id": "61"
    },
    {
      "type": "Feature",
      "label": "\u5927\u9f99\u9a7f",
      "geometry": {
        "type": "Point",
        "coordinates": [
          110.38369,
          25.4632
        ]
      },
      "properties": {
        "gazetteer_label": "DALONG Guangxi (\u5927\u9f99\u9a7f)",
        "status": "Y",
        "comment": "",
        "gazetteer_uri": "",
        "collection": "courier",
        "source": "MDYZK"
      },
      "id": "62"
    },
    {
      "type": "Feature",
      "label": "\u6021\u5bb9\u9a7f",
      "geometry": {
        "type": "Point",
        "coordinates": [
          110.39697,
          28.45819
        ]
      },
      "properties": {
        "gazetteer_label": "YIRONGYI Hunan (\u6021\u5bb9\u9a7f)",
        "status": "Y",
        "comment": "",
        "gazetteer_uri": "",
        "collection": "courier",
        "source": "MDYZK"
      },
      "id": "63"
    },
    {
      "type": "Feature",
      "label": "\u6a0a\u6865\u9a7f",
      "geometry": {
        "type": "Point",
        "coordinates": [
          110.596,
          35.056
        ]
      },
      "properties": {
        "gazetteer_label": "FANQIAOYI Shanxi (\u6a0a\u6865\u9a7f)",
        "status": "Y",
        "comment": "",
        "gazetteer_uri": "",
        "collection": "courier",
        "source": "MDYZK"
      },
      "id": "64"
    },
    {
      "type": "Feature",
      "label": "\u767d\u4e91\u9a7f",
      "geometry": {
        "type": "Point",
        "coordinates": [
          110.66587,
          25.61313
        ]
      },
      "properties": {
        "gazetteer_label": "BAIYUNYI Guangxi (\u767d\u4e91\u9a7f)",
        "status": "N",
        "comment": "",
        "gazetteer_uri": "",
        "collection": "courier",
        "source": "MDYZK"
      },
      "id": "65"
    },
    {
      "type": "Feature",
      "label": "\u6cd3\u829d\u9a7f",
      "geometry": {
        "type": "Point",
        "coordinates": [
          110.95201,
          35.06637
        ]
      },
      "properties": {
        "gazetteer_label": "HONGZHI Shanxi (\u6cd3\u829d\u9a7f)",
        "status": "Y",
        "comment": "",
        "gazetteer_uri": "",
        "collection": "courier",
        "source": "MDYZK"
      },
      "id": "66"
    },
    {
      "type": "Feature",
      "label": "\u57ce\u5357\u9a7f",
      "geometry": {
        "type": "Point",
        "coordinates": [
          111.065,
          25.93181
        ]
      },
      "properties": {
        "gazetteer_label": "CHENGNAN Guangxi (\u57ce\u5357\u9a7f)",
        "status": "Y",
        "comment": "",
        "gazetteer_uri": "",
        "collection": "courier",
        "source": "MDYZK"
      },
      "id": "67"
    },
    {
      "type": "Feature",
      "label": "\u6d91\u5ddd\u9a7f",
      "geometry": {
        "type": "Point",
        "coordinates": [
          111.21721,
          35.35772
        ]
      },
      "properties": {
        "gazetteer_label": "SUCHUANYI Shanxi (\u6d91\u5ddd\u9a7f)",
        "status": "N",
        "comment": "",
        "gazetteer_uri": "",
        "collection": "courier",
        "source": "MDYZK"
      },
      "id": "68"
    },
    {
      "type": "Feature",
      "label": "\u8499\u57ce\u9a7f",
      "geometry": {
        "type": "Point",
        "coordinates": [
          111.44948,
          35.7921
        ]
      },
      "properties": {
        "gazetteer_label": "MENGCHENGYI Shanxi (\u8499\u57ce\u9a7f)",
        "status": "Y",
        "comment": "",
        "gazetteer_uri": "",
        "collection": "courier",
        "source": "MDYZK"
      },
      "id": "69"
    },
    {
      "type": "Feature",
      "label": "\u6843\u6e90\u9a7f",
      "geometry": {
        "type": "Point",
        "coordinates": [
          111.47777,
          28.9016
        ]
      },
      "properties": {
        "gazetteer_label": "TAOYUAN Hunan (\u6843\u6e90\u9a7f)",
        "status": "Y",
        "comment": "",
        "gazetteer_uri": "",
        "collection": "courier",
        "source": "MDYZK"
      },
      "id": "70"
    },
    {
      "type": "Feature",
      "label": "\u5efa\u96c4\u9a7f",
      "geometry": {
        "type": "Point",
        "coordinates": [
          111.51543,
          36.07804
        ]
      },
      "properties": {
        "gazetteer_label": "JIANXIONG Shanxi (\u5efa\u96c4\u9a7f)",
        "status": "Y",
        "comment": "",
        "gazetteer_uri": "",
        "collection": "courier",
        "source": "MDYZK"
      },
      "id": "71"
    },
    {
      "type": "Feature",
      "label": "\u96f6\u9675",
      "geometry": {
        "type": "Point",
        "coordinates": [
          111.61256,
          26.21034
        ]
      },
      "properties": {
        "gazetteer_label": "LINGLING Hunan (\u96f6\u9675)",
        "status": "N",
        "comment": "",
        "gazetteer_uri": "",
        "collection": "courier",
        "source": "PA_1903"
      },
      "id": "72"
    },
    {
      "type": "Feature",
      "label": "\u666e\u6da7\u9a7f",
      "geometry": {
        "type": "Point",
        "coordinates": [
          111.68291,
          36.2594
        ]
      },
      "properties": {
        "gazetteer_label": "PUJIANYI Shanxi (\u666e\u6da7\u9a7f)",
        "status": "N",
        "comment": "",
        "gazetteer_uri": "",
        "collection": "courier",
        "source": "MDYZK"
      },
      "id": "73"
    },
    {
      "type": "Feature",
      "label": "\u5927\u9f99\u9a7f",
      "geometry": {
        "type": "Point",
        "coordinates": [
          111.6913,
          29.03481
        ]
      },
      "properties": {
        "gazetteer_label": "DALONG Hunan (\u5927\u9f99\u9a7f)",
        "status": "Y",
        "comment": "",
        "gazetteer_uri": "",
        "collection": "courier",
        "source": "MDYZK"
      },
      "id": "74"
    },
    {
      "type": "Feature",
      "label": "\u970d\u5c71\u9a7f",
      "geometry": {
        "type": "Point",
        "coordinates": [
          111.72808,
          36.56382
        ]
      },
      "properties": {
        "gazetteer_label": "HUOSHAN Shanxi (\u970d\u5c71\u9a7f)",
        "status": "Y",
        "comment": "",
        "gazetteer_uri": "",
        "collection": "courier",
        "source": "MDYZK"
      },
      "id": "75"
    },
    {
      "type": "Feature",
      "label": "\u5170\u6c5f\u9a7f",
      "geometry": {
        "type": "Point",
        "coordinates": [
          111.75699,
          29.64015
        ]
      },
      "properties": {
        "gazetteer_label": "LANJIANGYI Hunan (\u5170\u6c5f\u9a7f)",
        "status": "Y",
        "comment": "",
        "gazetteer_uri": "",
        "collection": "courier",
        "source": "MDYZK"
      },
      "id": "76"
    },
    {
      "type": "Feature",
      "label": "\u745e\u77f3\u9a7f",
      "geometry": {
        "type": "Point",
        "coordinates": [
          111.77621,
          36.84215
        ]
      },
      "properties": {
        "gazetteer_label": "RUISHI Shanxi (\u745e\u77f3\u9a7f)",
        "status": "Y",
        "comment": "",
        "gazetteer_uri": "",
        "collection": "courier",
        "source": "MDYZK"
      },
      "id": "77"
    },
    {
      "type": "Feature",
      "label": "\u4e49\u68e0\u9a7f",
      "geometry": {
        "type": "Point",
        "coordinates": [
          111.91216,
          37.02647
        ]
      },
      "properties": {
        "gazetteer_label": "YITANG Shanxi (\u4e49\u68e0\u9a7f)",
        "status": "Y",
        "comment": "",
        "gazetteer_uri": "",
        "collection": "courier",
        "source": "MDYZK"
      },
      "id": "78"
    },
    {
      "type": "Feature",
      "label": "\u4e09\u543e\u9a7f",
      "geometry": {
        "type": "Point",
        "coordinates": [
          111.8559,
          26.59169
        ]
      },
      "properties": {
        "gazetteer_label": "SANWUYI Hunan (\u4e09\u543e\u9a7f)",
        "status": "N",
        "comment": "",
        "gazetteer_uri": "",
        "collection": "courier",
        "source": "MDYZK"
      },
      "id": "79"
    },
    {
      "type": "Feature",
      "label": "\u5b71\u9675\u9a7f",
      "geometry": {
        "type": "Point",
        "coordinates": [
          112.0781,
          29.9145
        ]
      },
      "properties": {
        "gazetteer_label": "CHANLING Hubei (\u5b71\u9675\u9a7f)",
        "status": "Y",
        "comment": "",
        "gazetteer_uri": "",
        "collection": "courier",
        "source": "MDYZK"
      },
      "id": "80"
    },
    {
      "type": "Feature",
      "label": "\u6c49\u6c5f\u9a7f",
      "geometry": {
        "type": "Point",
        "coordinates": [
          112.15586,
          32.02028
        ]
      },
      "properties": {
        "gazetteer_label": "HANJIANGYI Hubei (\u6c49\u6c5f\u9a7f)",
        "status": "N",
        "comment": "",
        "gazetteer_uri": "",
        "collection": "courier",
        "source": "MDYZK"
      },
      "id": "81"
    },
    {
      "type": "Feature",
      "label": "\u8346\u5357\u9a7f",
      "geometry": {
        "type": "Point",
        "coordinates": [
          112.19077,
          30.35044
        ]
      },
      "properties": {
        "gazetteer_label": "JINGNAN Hubei (\u8346\u5357\u9a7f)",
        "status": "Y",
        "comment": "",
        "gazetteer_uri": "",
        "collection": "courier",
        "source": "MDYZK"
      },
      "id": "82"
    },
    {
      "type": "Feature",
      "label": "\u8346\u5c71\u9a7f",
      "geometry": {
        "type": "Point",
        "coordinates": [
          112.19842,
          31.02873
        ]
      },
      "properties": {
        "gazetteer_label": "JINGSHANYI Hubei (\u8346\u5c71\u9a7f)",
        "status": "Y",
        "comment": "",
        "gazetteer_uri": "",
        "collection": "courier",
        "source": "MDYZK"
      },
      "id": "83"
    },
    {
      "type": "Feature",
      "label": "\u6d2a\u5584\u9a7f",
      "geometry": {
        "type": "Point",
        "coordinates": [
          112.2168,
          37.28425
        ]
      },
      "properties": {
        "gazetteer_label": "HONGSHANYI Shanxi (\u6d2a\u5584\u9a7f)",
        "status": "Y",
        "comment": "",
        "gazetteer_uri": "",
        "collection": "courier",
        "source": "MDYZK"
      },
      "id": "84"
    },
    {
      "type": "Feature",
      "label": "\u9122\u57ce\u9a7f",
      "geometry": {
        "type": "Point",
        "coordinates": [
          112.26013,
          31.7107
        ]
      },
      "properties": {
        "gazetteer_label": "YANCHENG Hubei (\u9122\u57ce\u9a7f)",
        "status": "Y",
        "comment": "",
        "gazetteer_uri": "",
        "collection": "courier",
        "source": "MDYZK"
      },
      "id": "85"
    },
    {
      "type": "Feature",
      "label": "\u7941\u53bf",
      "geometry": {
        "type": "Point",
        "coordinates": [
          112.3153,
          37.35382
        ]
      },
      "properties": {
        "gazetteer_label": "QIXIAN Shanxi (\u7941\u53bf)",
        "status": "Y",
        "comment": "",
        "gazetteer_uri": "",
        "collection": "courier",
        "source": "MDYZK"
      },
      "id": "86"
    },
    {
      "type": "Feature",
      "label": "\u6e4d\u9633\u9a7f",
      "geometry": {
        "type": "Point",
        "coordinates": [
          112.35843,
          32.52487
        ]
      },
      "properties": {
        "gazetteer_label": "TUANYANG Henan (\u6e4d\u9633\u9a7f)",
        "status": "Y",
        "comment": "",
        "gazetteer_uri": "",
        "collection": "courier",
        "source": "MDYZK"
      },
      "id": "87"
    },
    {
      "type": "Feature",
      "label": "\u5f90\u6c9f",
      "geometry": {
        "type": "Point",
        "coordinates": [
          112.509,
          37.55718
        ]
      },
      "properties": {
        "gazetteer_label": "XUGOU Shanxi (\u5f90\u6c9f)",
        "status": "Y",
        "comment": "",
        "gazetteer_uri": "",
        "collection": "courier",
        "source": "MDYZK"
      },
      "id": "88"
    },
    {
      "type": "Feature",
      "label": "\u4e34\u6c7e\u9a7f",
      "geometry": {
        "type": "Point",
        "coordinates": [
          112.47893,
          37.72759
        ]
      },
      "properties": {
        "gazetteer_label": "LINFENYI Shanxi (\u4e34\u6c7e\u9a7f)",
        "status": "Y",
        "comment": "",
        "gazetteer_uri": "",
        "collection": "courier",
        "source": "MDYZK"
      },
      "id": "89"
    },
    {
      "type": "Feature",
      "label": "\u4e34\u4e1e\u9a7f",
      "geometry": {
        "type": "Point",
        "coordinates": [
          112.59704,
          26.90162
        ]
      },
      "properties": {
        "gazetteer_label": "LINCHENGYI Hunan (\u4e34\u4e1e\u9a7f)",
        "status": "N",
        "comment": "",
        "gazetteer_uri": "",
        "collection": "courier",
        "source": "MDYZK"
      },
      "id": "90"
    },
    {
      "type": "Feature",
      "label": "\u9e23\u8c26\u9a7f",
      "geometry": {
        "type": "Point",
        "coordinates": [
          112.6978,
          37.76786
        ]
      },
      "properties": {
        "gazetteer_label": "MINGQIAN Shanxi (\u9e23\u8c26\u9a7f)",
        "status": "Y",
        "comment": "",
        "gazetteer_uri": "",
        "collection": "courier",
        "source": "MDYZK"
      },
      "id": "91"
    },
    {
      "type": "Feature",
      "label": "\u535a\u671b\u9a7f",
      "geometry": {
        "type": "Point",
        "coordinates": [
          112.7118,
          33.16429
        ]
      },
      "properties": {
        "gazetteer_label": "BOWANG Henan (\u535a\u671b\u9a7f)",
        "status": "Y",
        "comment": "",
        "gazetteer_uri": "",
        "collection": "courier",
        "source": "MDYZK"
      },
      "id": "92"
    },
    {
      "type": "Feature",
      "label": "\u539f\u5e73\u9a7f",
      "geometry": {
        "type": "Point",
        "coordinates": [
          112.7121,
          38.7266
        ]
      },
      "properties": {
        "gazetteer_label": "YUANPING Shanxi (\u539f\u5e73\u9a7f)",
        "status": "Y",
        "comment": "",
        "gazetteer_uri": "",
        "collection": "courier",
        "source": "MDYZK"
      },
      "id": "93"
    },
    {
      "type": "Feature",
      "label": "\u9ec4\u5821\u9a7f",
      "geometry": {
        "type": "Point",
        "coordinates": [
          112.85242,
          27.24565
        ]
      },
      "properties": {
        "gazetteer_label": "HUANGBAO Hunan (\u9ec4\u5821\u9a7f)",
        "status": "Y",
        "comment": "",
        "gazetteer_uri": "",
        "collection": "courier",
        "source": "MDYZK"
      },
      "id": "94"
    },
    {
      "type": "Feature",
      "label": "\u7b19\u7af9\u9a7f",
      "geometry": {
        "type": "Point",
        "coordinates": [
          112.88029,
          28.67621
        ]
      },
      "properties": {
        "gazetteer_label": "SHENGZHUYI Hunan (\u7b19\u7af9\u9a7f)",
        "status": "N",
        "comment": "",
        "gazetteer_uri": "",
        "collection": "courier",
        "source": "MDYZK"
      },
      "id": "95"
    },
    {
      "type": "Feature",
      "label": "\u897f\u5357\u9a7f",
      "geometry": {
        "type": "Point",
        "coordinates": [
          112.88607,
          23.16587
        ]
      },
      "properties": {
        "gazetteer_label": "XI'NAN Guangdong (\u897f\u5357\u9a7f)",
        "status": "Y",
        "comment": "",
        "gazetteer_uri": "",
        "collection": "courier",
        "source": "MDYZK"
      },
      "id": "96"
    },
    {
      "type": "Feature",
      "label": "\u6e58\u6f6d\u9a7f",
      "geometry": {
        "type": "Point",
        "coordinates": [
          112.91126,
          27.8727
        ]
      },
      "properties": {
        "gazetteer_label": "XIANGTANYI Hunan (\u6e58\u6f6d\u9a7f)",
        "status": "Y",
        "comment": "",
        "gazetteer_uri": "",
        "collection": "courier",
        "source": "MDYZK"
      },
      "id": "97"
    },
    {
      "type": "Feature",
      "label": "\u96c1\u95e8\u9a7f",
      "geometry": {
        "type": "Point",
        "coordinates": [
          112.94904,
          39.06039
        ]
      },
      "properties": {
        "gazetteer_label": "YANMEN Shanxi (\u96c1\u95e8\u9a7f)",
        "status": "Y",
        "comment": "",
        "gazetteer_uri": "",
        "collection": "courier",
        "source": "MDYZK"
      },
      "id": "98"
    },
    {
      "type": "Feature",
      "label": "\u4e34\u6e58\u9a7f",
      "geometry": {
        "type": "Point",
        "coordinates": [
          112.97813,
          28.1982
        ]
      },
      "properties": {
        "gazetteer_label": "LINXIANGYI Hunan (\u4e34\u6e58\u9a7f)",
        "status": "N",
        "comment": "",
        "gazetteer_uri": "",
        "collection": "courier",
        "source": "MDYZK"
      },
      "id": "99"
    },
    {
      "type": "Feature",
      "label": "\u8d6d\u9633\u9a7f",
      "geometry": {
        "type": "Point",
        "coordinates": [
          112.99251,
          33.26008
        ]
      },
      "properties": {
        "gazetteer_label": "ZHEYANG Henan (\u8d6d\u9633\u9a7f)",
        "status": "Y",
        "comment": "",
        "gazetteer_uri": "",
        "collection": "courier",
        "source": "MDYZK"
      },
      "id": "100"
    },
    {
      "type": "Feature",
      "label": "\u5b89\u8fdc\u9a7f",
      "geometry": {
        "type": "Point",
        "coordinates": [
          113.02213,
          23.72073
        ]
      },
      "properties": {
        "gazetteer_label": "ANYUAN Guangdong (\u5b89\u8fdc\u9a7f)",
        "status": "Y",
        "comment": "",
        "gazetteer_uri": "",
        "collection": "courier",
        "source": "MDYZK"
      },
      "id": "101"
    },
    {
      "type": "Feature",
      "label": "\u5cb3\u9633\u9a7f",
      "geometry": {
        "type": "Point",
        "coordinates": [
          113.09766,
          29.37126
        ]
      },
      "properties": {
        "gazetteer_label": "YUEYANG Hunan (\u5cb3\u9633\u9a7f)",
        "status": "Y",
        "comment": "",
        "gazetteer_uri": "",
        "collection": "courier",
        "source": "MDYZK"
      },
      "id": "102"
    },
    {
      "type": "Feature",
      "label": "\u592a\u5b89\u9a7f",
      "geometry": {
        "type": "Point",
        "coordinates": [
          113.16871,
          37.88678
        ]
      },
      "properties": {
        "gazetteer_label": "TAI'AN Shanxi (\u592a\u5b89\u9a7f)",
        "status": "Y",
        "comment": "",
        "gazetteer_uri": "",
        "collection": "courier",
        "source": "MDYZK"
      },
      "id": "103"
    },
    {
      "type": "Feature",
      "label": "\u4e94\u7f8a\u9a7f",
      "geometry": {
        "type": "Point",
        "coordinates": [
          113.25607,
          23.13462
        ]
      },
      "properties": {
        "gazetteer_label": "WUYANG Guangdong (\u4e94\u7f8a\u9a7f)",
        "status": "Y",
        "comment": "",
        "gazetteer_uri": "",
        "collection": "courier",
        "source": "MDYZK"
      },
      "id": "104"
    },
    {
      "type": "Feature",
      "label": "\u7e41\u5cd9",
      "geometry": {
        "type": "Point",
        "coordinates": [
          113.272,
          39.19
        ]
      },
      "properties": {
        "gazetteer_label": "FANZHI Shanxi (\u7e41\u5cd9)",
        "status": "Y",
        "comment": "",
        "gazetteer_uri": "",
        "collection": "courier",
        "source": "MDYZK"
      },
      "id": "105"
    },
    {
      "type": "Feature",
      "label": "\u4e34\u6e58",
      "geometry": {
        "type": "Point",
        "coordinates": [
          113.29287,
          29.58814
        ]
      },
      "properties": {
        "gazetteer_label": "LINXIANG Hunan (\u4e34\u6e58)",
        "status": "Y",
        "comment": "",
        "gazetteer_uri": "",
        "collection": "courier",
        "source": "MDYZK"
      },
      "id": "106"
    },
    {
      "type": "Feature",
      "label": "\u6ecd\u6c34\u9a7f",
      "geometry": {
        "type": "Point",
        "coordinates": [
          113.34553,
          33.6233
        ]
      },
      "properties": {
        "gazetteer_label": "ZHISHUI Henan (\u6ecd\u6c34\u9a7f)",
        "status": "Y",
        "comment": "",
        "gazetteer_uri": "",
        "collection": "courier",
        "source": "MDYZK"
      },
      "id": "107"
    },
    {
      "type": "Feature",
      "label": "\u5e7f\u6b66\u9a7f",
      "geometry": {
        "type": "Point",
        "coordinates": [
          113.52824,
          34.98441
        ]
      },
      "properties": {
        "gazetteer_label": "GUANGWU Henan (\u5e7f\u6b66\u9a7f)",
        "status": "Y",
        "comment": "",
        "gazetteer_uri": "",
        "collection": "courier",
        "source": "MDYZK"
      },
      "id": "108"
    },
    {
      "type": "Feature",
      "label": "\u82f1\u5fb7",
      "geometry": {
        "type": "Point",
        "coordinates": [
          113.40208,
          24.17294
        ]
      },
      "properties": {
        "gazetteer_label": "YINGDE Guangdong (\u82f1\u5fb7)",
        "status": "Y",
        "comment": "",
        "gazetteer_uri": "",
        "collection": "courier",
        "source": "MDYZK"
      },
      "id": "109"
    },
    {
      "type": "Feature",
      "label": "\u82b9\u6cc9\u9a7f",
      "geometry": {
        "type": "Point",
        "coordinates": [
          113.2743,
          37.8696
        ]
      },
      "properties": {
        "gazetteer_label": "QINQUANYI Shanxi (\u82b9\u6cc9\u9a7f)",
        "status": "Y",
        "comment": "",
        "gazetteer_uri": "",
        "collection": "courier",
        "source": "MDYZK"
      },
      "id": "110"
    },
    {
      "type": "Feature",
      "label": "\u6e05\u9896\u9a7f",
      "geometry": {
        "type": "Point",
        "coordinates": [
          113.46706,
          34.16249
        ]
      },
      "properties": {
        "gazetteer_label": "QINGYING Henan (\u6e05\u9896\u9a7f)",
        "status": "Y",
        "comment": "",
        "gazetteer_uri": "",
        "collection": "courier",
        "source": "MDYZK"
      },
      "id": "111"
    },
    {
      "type": "Feature",
      "label": "\u65b0\u57ce\u9a7f",
      "geometry": {
        "type": "Point",
        "coordinates": [
          113.47237,
          33.85369
        ]
      },
      "properties": {
        "gazetteer_label": "XINCHENG Henan (\u65b0\u57ce\u9a7f)",
        "status": "Y",
        "comment": "",
        "gazetteer_uri": "",
        "collection": "courier",
        "source": "MDYZK"
      },
      "id": "112"
    },
    {
      "type": "Feature",
      "label": "\u8299\u84c9\u9a7f",
      "geometry": {
        "type": "Point",
        "coordinates": [
          113.60342,
          24.81021
        ]
      },
      "properties": {
        "gazetteer_label": "FURONG Guangdong (\u8299\u84c9\u9a7f)",
        "status": "Y",
        "comment": "",
        "gazetteer_uri": "",
        "collection": "courier",
        "source": "MDYZK"
      },
      "id": "113"
    },
    {
      "type": "Feature",
      "label": "\u5e73\u6f6d\u9a7f",
      "geometry": {
        "type": "Point",
        "coordinates": [
          113.62227,
          37.80204
        ]
      },
      "properties": {
        "gazetteer_label": "PINGTANYI Shanxi (\u5e73\u6f6d\u9a7f)",
        "status": "N",
        "comment": "",
        "gazetteer_uri": "",
        "collection": "courier",
        "source": "MDYZK"
      },
      "id": "114"
    },
    {
      "type": "Feature",
      "label": "\u7ba1\u57ce\u9a7f",
      "geometry": {
        "type": "Point",
        "coordinates": [
          113.64131,
          34.75808
        ]
      },
      "properties": {
        "gazetteer_label": "GUANCHENGYI Henan (\u7ba1\u57ce\u9a7f)",
        "status": "N",
        "comment": "",
        "gazetteer_uri": "",
        "collection": "courier",
        "source": "MDYZK"
      },
      "id": "115"
    },
    {
      "type": "Feature",
      "label": "\u5fb7\u5b89\u5e9c",
      "geometry": {
        "type": "Point",
        "coordinates": [
          113.6869,
          31.25261
        ]
      },
      "properties": {
        "gazetteer_label": "DE'ANFU Hubei (\u5fb7\u5b89\u5e9c)",
        "status": "N",
        "comment": "",
        "gazetteer_uri": "",
        "collection": "courier",
        "source": "MDYZK"
      },
      "id": "116"
    },
    {
      "type": "Feature",
      "label": "\u67cf\u4e95\u9a7f",
      "geometry": {
        "type": "Point",
        "coordinates": [
          113.805,
          37.81944
        ]
      },
      "properties": {
        "gazetteer_label": "BAIJING Shanxi (\u67cf\u4e95\u9a7f)",
        "status": "Y",
        "comment": "",
        "gazetteer_uri": "",
        "collection": "courier",
        "source": "MDYZK"
      },
      "id": "117"
    },
    {
      "type": "Feature",
      "label": "\u90ed\u5e97\u9a7f",
      "geometry": {
        "type": "Point",
        "coordinates": [
          113.71909,
          34.39732
        ]
      },
      "properties": {
        "gazetteer_label": "GUODIAN Henan (\u90ed\u5e97\u9a7f)",
        "status": "Y",
        "comment": "",
        "gazetteer_uri": "",
        "collection": "courier",
        "source": "MDYZK"
      },
      "id": "118"
    },
    {
      "type": "Feature",
      "label": "\u4e91\u68a6",
      "geometry": {
        "type": "Point",
        "coordinates": [
          113.7333,
          31.02003
        ]
      },
      "properties": {
        "gazetteer_label": "YUNMENG Hubei (\u4e91\u68a6)",
        "status": "Y",
        "comment": "",
        "gazetteer_uri": "",
        "collection": "courier",
        "source": "MDYZK"
      },
      "id": "119"
    },
    {
      "type": "Feature",
      "label": "\u65b0\u4e2d\u9a7f",
      "geometry": {
        "type": "Point",
        "coordinates": [
          113.86825,
          35.30994
        ]
      },
      "properties": {
        "gazetteer_label": "XINZHONG Henan (\u65b0\u4e2d\u9a7f)",
        "status": "Y",
        "comment": "",
        "gazetteer_uri": "",
        "collection": "courier",
        "source": "MDYZK"
      },
      "id": "120"
    },
    {
      "type": "Feature",
      "label": "\u51e4\u5c71\u9a7f",
      "geometry": {
        "type": "Point",
        "coordinates": [
          113.87461,
          29.70835
        ]
      },
      "properties": {
        "gazetteer_label": "FENGSHANYI Hubei (\u51e4\u5c71\u9a7f)",
        "status": "N",
        "comment": "",
        "gazetteer_uri": "",
        "collection": "courier",
        "source": "MDYZK"
      },
      "id": "121"
    },
    {
      "type": "Feature",
      "label": "\u738b\u5bb6\u5e84\u9a7f",
      "geometry": {
        "type": "Point",
        "coordinates": [
          113.91641,
          39.43094
        ]
      },
      "properties": {
        "gazetteer_label": "WANGJIAZHUANG Shanxi (\u738b\u5bb6\u5e84\u9a7f)",
        "status": "Y",
        "comment": "",
        "gazetteer_uri": "",
        "collection": "courier",
        "source": "MDYZK"
      },
      "id": "122"
    },
    {
      "type": "Feature",
      "label": "\u4e34\u9896\u9a7f",
      "geometry": {
        "type": "Point",
        "coordinates": [
          113.96064,
          33.80861
        ]
      },
      "properties": {
        "gazetteer_label": "LINYING Henan (\u4e34\u9896\u9a7f)",
        "status": "Y",
        "comment": "",
        "gazetteer_uri": "",
        "collection": "courier",
        "source": "MDYZK"
      },
      "id": "123"
    },
    {
      "type": "Feature",
      "label": "\u90fe\u57ce\u9a7f",
      "geometry": {
        "type": "Point",
        "coordinates": [
          113.9657,
          33.58221
        ]
      },
      "properties": {
        "gazetteer_label": "YANCHENG Henan (\u90fe\u57ce\u9a7f)",
        "status": "Y",
        "comment": "",
        "gazetteer_uri": "",
        "collection": "courier",
        "source": "MDYZK"
      },
      "id": "124"
    },
    {
      "type": "Feature",
      "label": "\u897f\u5e73\u9a7f",
      "geometry": {
        "type": "Point",
        "coordinates": [
          114.01553,
          33.38906
        ]
      },
      "properties": {
        "gazetteer_label": "XIPING Henan (\u897f\u5e73\u9a7f)",
        "status": "Y",
        "comment": "",
        "gazetteer_uri": "",
        "collection": "courier",
        "source": "MDYZK"
      },
      "id": "125"
    },
    {
      "type": "Feature",
      "label": "\u9649\u5c71\u9a7f",
      "geometry": {
        "type": "Point",
        "coordinates": [
          114.01778,
          38.00616
        ]
      },
      "properties": {
        "gazetteer_label": "XINGSHAN Hebei (\u9649\u5c71\u9a7f)",
        "status": "Y",
        "comment": "",
        "gazetteer_uri": "",
        "collection": "courier",
        "source": "MDYZK"
      },
      "id": "126"
    },
    {
      "type": "Feature",
      "label": "\u536b\u6e90\u9a7f",
      "geometry": {
        "type": "Point",
        "coordinates": [
          114.07027,
          35.41039
        ]
      },
      "properties": {
        "gazetteer_label": "WEIYUANYI Henan (\u536b\u6e90\u9a7f)",
        "status": "N",
        "comment": "",
        "gazetteer_uri": "",
        "collection": "courier",
        "source": "MDYZK"
      },
      "id": "127"
    },
    {
      "type": "Feature",
      "label": "\u6dc7\u95e8\u9a7f",
      "geometry": {
        "type": "Point",
        "coordinates": [
          114.19437,
          35.60645
        ]
      },
      "properties": {
        "gazetteer_label": "QIMEN Henan (\u6dc7\u95e8\u9a7f)",
        "status": "Y",
        "comment": "",
        "gazetteer_uri": "",
        "collection": "courier",
        "source": "MDYZK"
      },
      "id": "128"
    },
    {
      "type": "Feature",
      "label": "\u5eea\u5ef7\u9a7f",
      "geometry": {
        "type": "Point",
        "coordinates": [
          114.19469,
          35.14276
        ]
      },
      "properties": {
        "gazetteer_label": "LITINGYI Henan (\u5eea\u5ef7\u9a7f)",
        "status": "N",
        "comment": "",
        "gazetteer_uri": "",
        "collection": "courier",
        "source": "MDYZK"
      },
      "id": "129"
    },
    {
      "type": "Feature",
      "label": "\u592a\u767d\u9a7f",
      "geometry": {
        "type": "Point",
        "coordinates": [
          114.22922,
          39.43774
        ]
      },
      "properties": {
        "gazetteer_label": "TAIBAI Shanxi (\u592a\u767d\u9a7f)",
        "status": "Y",
        "comment": "",
        "gazetteer_uri": "",
        "collection": "courier",
        "source": "MDYZK"
      },
      "id": "130"
    },
    {
      "type": "Feature",
      "label": "\u6c49\u9633\u5e9c",
      "geometry": {
        "type": "Point",
        "coordinates": [
          114.26192,
          30.54437
        ]
      },
      "properties": {
        "gazetteer_label": "HANYANGFU Hubei (\u6c49\u9633\u5e9c)",
        "status": "Y",
        "comment": "",
        "gazetteer_uri": "",
        "collection": "courier",
        "source": "MDYZK"
      },
      "id": "131"
    },
    {
      "type": "Feature",
      "label": "\u54b8\u5b81\u9a7f",
      "geometry": {
        "type": "Point",
        "coordinates": [
          114.27162,
          29.89248
        ]
      },
      "properties": {
        "gazetteer_label": "XIANNING Hubei (\u54b8\u5b81\u9a7f)",
        "status": "Y",
        "comment": "",
        "gazetteer_uri": "",
        "collection": "courier",
        "source": "MDYZK"
      },
      "id": "132"
    },
    {
      "type": "Feature",
      "label": "\u51cc\u6c5f\u9a7f",
      "geometry": {
        "type": "Point",
        "coordinates": [
          114.30209,
          25.11884
        ]
      },
      "properties": {
        "gazetteer_label": "LINGJIANG Guangdong (\u51cc\u6c5f\u9a7f)",
        "status": "Y",
        "comment": "",
        "gazetteer_uri": "",
        "collection": "courier",
        "source": "MDYZK"
      },
      "id": "133"
    },
    {
      "type": "Feature",
      "label": "\u9547\u5b81\u9a7f",
      "geometry": {
        "type": "Point",
        "coordinates": [
          114.30772,
          38.08311
        ]
      },
      "properties": {
        "gazetteer_label": "ZHENNING Hebei (\u9547\u5b81\u9a7f)",
        "status": "Y",
        "comment": "",
        "gazetteer_uri": "",
        "collection": "courier",
        "source": "MDYZK"
      },
      "id": "134"
    },
    {
      "type": "Feature",
      "label": "\u6b66\u660c\u5e9c",
      "geometry": {
        "type": "Point",
        "coordinates": [
          114.31919,
          30.54139
        ]
      },
      "properties": {
        "gazetteer_label": "WUCHANGFU Hubei (\u6b66\u660c\u5e9c)",
        "status": "N",
        "comment": "",
        "gazetteer_uri": "",
        "collection": "courier",
        "source": "MDYZK"
      },
      "id": "135"
    },
    {
      "type": "Feature",
      "label": "\u5927\u6881\u9a7f",
      "geometry": {
        "type": "Point",
        "coordinates": [
          114.34333,
          34.78548
        ]
      },
      "properties": {
        "gazetteer_label": "DALIANGYI Henan (\u5927\u6881\u9a7f)",
        "status": "N",
        "comment": "",
        "gazetteer_uri": "",
        "collection": "courier",
        "source": "MDYZK"
      },
      "id": "136"
    },
    {
      "type": "Feature",
      "label": "\u90ba\u57ce\u9a7f",
      "geometry": {
        "type": "Point",
        "coordinates": [
          114.3455,
          36.09834
        ]
      },
      "properties": {
        "gazetteer_label": "YECHENG Henan (\u90ba\u57ce\u9a7f)",
        "status": "Y",
        "comment": "",
        "gazetteer_uri": "",
        "collection": "courier",
        "source": "MDYZK"
      },
      "id": "137"
    },
    {
      "type": "Feature",
      "label": "\u6a2a\u6d66\u9a7f",
      "geometry": {
        "type": "Point",
        "coordinates": [
          114.35057,
          25.39995
        ]
      },
      "properties": {
        "gazetteer_label": "HENGPUYI Jiangxi (\u6a2a\u6d66\u9a7f)",
        "status": "N",
        "comment": "",
        "gazetteer_uri": "",
        "collection": "courier",
        "source": "MDYZK"
      },
      "id": "138"
    },
    {
      "type": "Feature",
      "label": "\u5b9c\u6c9f",
      "geometry": {
        "type": "Point",
        "coordinates": [
          114.35269,
          35.92552
        ]
      },
      "properties": {
        "gazetteer_label": "YIGOU Henan (\u5b9c\u6c9f)",
        "status": "Y",
        "comment": "",
        "gazetteer_uri": "",
        "collection": "courier",
        "source": "MDYZK"
      },
      "id": "139"
    },
    {
      "type": "Feature",
      "label": "\u78c1\u5dde",
      "geometry": {
        "type": "Point",
        "coordinates": [
          114.37424,
          36.35904
        ]
      },
      "properties": {
        "gazetteer_label": "CIZHOU Hebei (\u78c1\u5dde)",
        "status": "P",
        "comment": "",
        "gazetteer_uri": "",
        "collection": "courier",
        "source": "PA_1903"
      },
      "id": "140"
    },
    {
      "type": "Feature",
      "label": "\u4ece\u53f0\u9a7f",
      "geometry": {
        "type": "Point",
        "coordinates": [
          114.47204,
          36.59348
        ]
      },
      "properties": {
        "gazetteer_label": "CONGTAI Hebei (\u4ece\u53f0\u9a7f)",
        "status": "Y",
        "comment": "",
        "gazetteer_uri": "",
        "collection": "courier",
        "source": "MDYZK"
      },
      "id": "141"
    },
    {
      "type": "Feature",
      "label": "\u9f99\u5188\u9a7f",
      "geometry": {
        "type": "Point",
        "coordinates": [
          114.49426,
          37.06636
        ]
      },
      "properties": {
        "gazetteer_label": "LONGGANG Hebei (\u9f99\u5188\u9a7f)",
        "status": "Y",
        "comment": "",
        "gazetteer_uri": "",
        "collection": "courier",
        "source": "MDYZK"
      },
      "id": "142"
    },
    {
      "type": "Feature",
      "label": "\u4e2d\u4e18\u9a7f",
      "geometry": {
        "type": "Point",
        "coordinates": [
          114.51186,
          37.295
        ]
      },
      "properties": {
        "gazetteer_label": "ZHONGQIUYI Hebei (\u4e2d\u4e18\u9a7f)",
        "status": "N",
        "comment": "",
        "gazetteer_uri": "",
        "collection": "courier",
        "source": "MDYZK"
      },
      "id": "143"
    },
    {
      "type": "Feature",
      "label": "\u6052\u5c71\u9a7f",
      "geometry": {
        "type": "Point",
        "coordinates": [
          114.56364,
          38.14011
        ]
      },
      "properties": {
        "gazetteer_label": "HENGSHANYI Hebei (\u6052\u5c71\u9a7f)",
        "status": "L",
        "comment": "",
        "gazetteer_uri": "",
        "collection": "courier",
        "source": "MDYZK"
      },
      "id": "144"
    },
    {
      "type": "Feature",
      "label": "\u5173\u57ce\u9a7f",
      "geometry": {
        "type": "Point",
        "coordinates": [
          114.65269,
          37.88578
        ]
      },
      "properties": {
        "gazetteer_label": "GUANCHENG Hebei (\u5173\u57ce\u9a7f)",
        "status": "N",
        "comment": "",
        "gazetteer_uri": "",
        "collection": "courier",
        "source": "MDYZK"
      },
      "id": "145"
    },
    {
      "type": "Feature",
      "label": "\u69d0\u6c34\u9a7f",
      "geometry": {
        "type": "Point",
        "coordinates": [
          114.68058,
          37.49469
        ]
      },
      "properties": {
        "gazetteer_label": "HUAISHUI Hebei (\u69d0\u6c34\u9a7f)",
        "status": "Y",
        "comment": "",
        "gazetteer_uri": "",
        "collection": "courier",
        "source": "MDYZK"
      },
      "id": "146"
    },
    {
      "type": "Feature",
      "label": "\u5e7f\u660c",
      "geometry": {
        "type": "Point",
        "coordinates": [
          114.68877,
          39.35402
        ]
      },
      "properties": {
        "gazetteer_label": "GUANGCHANG Hebei (\u5e7f\u660c)",
        "status": "N",
        "comment": "",
        "gazetteer_uri": "",
        "collection": "courier",
        "source": "PA_1903"
      },
      "id": "147"
    },
    {
      "type": "Feature",
      "label": "\u5357\u57dc\u9a7f",
      "geometry": {
        "type": "Point",
        "coordinates": [
          114.74516,
          25.65857
        ]
      },
      "properties": {
        "gazetteer_label": "NANYE Jiangxi (\u5357\u57dc\u9a7f)",
        "status": "Y",
        "comment": "",
        "gazetteer_uri": "",
        "collection": "courier",
        "source": "MDYZK"
      },
      "id": "148"
    },
    {
      "type": "Feature",
      "label": "\u9117\u57ce\u9a7f",
      "geometry": {
        "type": "Point",
        "coordinates": [
          114.77218,
          37.75293
        ]
      },
      "properties": {
        "gazetteer_label": "ZHAOZHOU Hebei (\u9117\u57ce\u9a7f)",
        "status": "N",
        "comment": "",
        "gazetteer_uri": "",
        "collection": "courier",
        "source": "MDYZK"
      },
      "id": "149"
    },
    {
      "type": "Feature",
      "label": "\u4e94\u4e91\u9a7f",
      "geometry": {
        "type": "Point",
        "coordinates": [
          114.77968,
          26.46177
        ]
      },
      "properties": {
        "gazetteer_label": "WUYUN Jiangxi (\u4e94\u4e91\u9a7f)",
        "status": "Y",
        "comment": "",
        "gazetteer_uri": "",
        "collection": "courier",
        "source": "MDYZK"
      },
      "id": "150"
    },
    {
      "type": "Feature",
      "label": "\u897f\u4e50\u9a7f",
      "geometry": {
        "type": "Point",
        "coordinates": [
          114.78761,
          38.39504
        ]
      },
      "properties": {
        "gazetteer_label": "XILE Hebei (\u897f\u4e50\u9a7f)",
        "status": "N",
        "comment": "",
        "gazetteer_uri": "",
        "collection": "courier",
        "source": "MDYZK"
      },
      "id": "151"
    },
    {
      "type": "Feature",
      "label": "\u4f0f\u57ce\u9a7f",
      "geometry": {
        "type": "Point",
        "coordinates": [
          114.83418,
          38.03671
        ]
      },
      "properties": {
        "gazetteer_label": "FUCHENG Hebei (\u4f0f\u57ce\u9a7f)",
        "status": "Y",
        "comment": "",
        "gazetteer_uri": "",
        "collection": "courier",
        "source": "MDYZK"
      },
      "id": "152"
    },
    {
      "type": "Feature",
      "label": "\u767d\u4e0b\u9a7f",
      "geometry": {
        "type": "Point",
        "coordinates": [
          114.89487,
          26.7921
        ]
      },
      "properties": {
        "gazetteer_label": "BAIXIAYI Jiangxi (\u767d\u4e0b\u9a7f)",
        "status": "N",
        "comment": "",
        "gazetteer_uri": "",
        "collection": "courier",
        "source": "MDYZK"
      },
      "id": "153"
    },
    {
      "type": "Feature",
      "label": "\u6c34\u897f\u9a7f",
      "geometry": {
        "type": "Point",
        "coordinates": [
          114.93248,
          25.847
        ]
      },
      "properties": {
        "gazetteer_label": "SHUIXIYI Jiangxi (\u6c34\u897f\u9a7f)",
        "status": "Y",
        "comment": "",
        "gazetteer_uri": "",
        "collection": "courier",
        "source": "MDYZK"
      },
      "id": "154"
    },
    {
      "type": "Feature",
      "label": "\u87ba\u5ddd\u9a7f",
      "geometry": {
        "type": "Point",
        "coordinates": [
          114.97128,
          27.10324
        ]
      },
      "properties": {
        "gazetteer_label": "LUOCHUAN Jiangxi (\u87ba\u5ddd\u9a7f)",
        "status": "Y",
        "comment": "",
        "gazetteer_uri": "",
        "collection": "courier",
        "source": "MDYZK"
      },
      "id": "155"
    },
    {
      "type": "Feature",
      "label": "\u6c38\u5b9a\u9a7f",
      "geometry": {
        "type": "Point",
        "coordinates": [
          114.97504,
          38.52006
        ]
      },
      "properties": {
        "gazetteer_label": "YONGDING Hebei (\u6c38\u5b9a\u9a7f)",
        "status": "Y",
        "comment": "",
        "gazetteer_uri": "",
        "collection": "courier",
        "source": "MDYZK"
      },
      "id": "156"
    },
    {
      "type": "Feature",
      "label": "\u5409\u6c34",
      "geometry": {
        "type": "Point",
        "coordinates": [
          115.13225,
          27.21437
        ]
      },
      "properties": {
        "gazetteer_label": "JISHUIYI Jiangxi (\u5409\u6c34)",
        "status": "Y",
        "comment": "",
        "gazetteer_uri": "",
        "collection": "courier",
        "source": "MDYZK"
      },
      "id": "157"
    },
    {
      "type": "Feature",
      "label": "\u7fdf\u57ce\u9a7f",
      "geometry": {
        "type": "Point",
        "coordinates": [
          115.13342,
          38.70527
        ]
      },
      "properties": {
        "gazetteer_label": "DICHENG Hebei (\u7fdf\u57ce\u9a7f)",
        "status": "Y",
        "comment": "",
        "gazetteer_uri": "",
        "collection": "courier",
        "source": "MDYZK"
      },
      "id": "158"
    },
    {
      "type": "Feature",
      "label": "\u7389\u5ce1\u9a7f",
      "geometry": {
        "type": "Point",
        "coordinates": [
          115.14728,
          27.55369
        ]
      },
      "properties": {
        "gazetteer_label": "YUXIA Jiangxi (\u7389\u5ce1\u9a7f)",
        "status": "Y",
        "comment": "",
        "gazetteer_uri": "",
        "collection": "courier",
        "source": "MDYZK"
      },
      "id": "159"
    },
    {
      "type": "Feature",
      "label": "\u91d1\u5ddd\u9a7f",
      "geometry": {
        "type": "Point",
        "coordinates": [
          115.3834,
          27.75988
        ]
      },
      "properties": {
        "gazetteer_label": "JINCHUAN Jiangxi (\u91d1\u5ddd\u9a7f)",
        "status": "Y",
        "comment": "",
        "gazetteer_uri": "",
        "collection": "courier",
        "source": "MDYZK"
      },
      "id": "160"
    },
    {
      "type": "Feature",
      "label": "\u8427\u6ee9\u9a7f",
      "geometry": {
        "type": "Point",
        "coordinates": [
          115.39899,
          28.01557
        ]
      },
      "properties": {
        "gazetteer_label": "XIAOTAN Jiangxi (\u8427\u6ee9\u9a7f)",
        "status": "Y",
        "comment": "",
        "gazetteer_uri": "",
        "collection": "courier",
        "source": "MDYZK"
      },
      "id": "161"
    },
    {
      "type": "Feature",
      "label": "\u91d1\u53f0\u9a7f",
      "geometry": {
        "type": "Point",
        "coordinates": [
          115.50209,
          38.8557
        ]
      },
      "properties": {
        "gazetteer_label": "JINTAIYI Hebei (\u91d1\u53f0\u9a7f)",
        "status": "N",
        "comment": "",
        "gazetteer_uri": "",
        "collection": "courier",
        "source": "MDYZK"
      },
      "id": "162"
    },
    {
      "type": "Feature",
      "label": "\u767d\u6c9f\u9a7f",
      "geometry": {
        "type": "Point",
        "coordinates": [
          115.65739,
          39.01944
        ]
      },
      "properties": {
        "gazetteer_label": "BAIGOU Hebei (\u767d\u6c9f\u9a7f)",
        "status": "Y",
        "comment": "",
        "gazetteer_uri": "",
        "collection": "courier",
        "source": "MDYZK"
      },
      "id": "163"
    },
    {
      "type": "Feature",
      "label": "\u6d9e\u6c34",
      "geometry": {
        "type": "Point",
        "coordinates": [
          115.7032,
          39.38615
        ]
      },
      "properties": {
        "gazetteer_label": "LAISHUI Hebei (\u6d9e\u6c34)",
        "status": "B",
        "comment": "",
        "gazetteer_uri": "",
        "collection": "courier",
        "source": "PA_1903"
      },
      "id": "164"
    },
    {
      "type": "Feature",
      "label": "\u5fb7\u5b89",
      "geometry": {
        "type": "Point",
        "coordinates": [
          115.74503,
          29.33056
        ]
      },
      "properties": {
        "gazetteer_label": "DE'AN Jiangxi (\u5fb7\u5b89)",
        "status": "Y",
        "comment": "",
        "gazetteer_uri": "",
        "collection": "courier",
        "source": "MDYZK"
      },
      "id": "165"
    },
    {
      "type": "Feature",
      "label": "\u5efa\u660c",
      "geometry": {
        "type": "Point",
        "coordinates": [
          115.76182,
          29.08783
        ]
      },
      "properties": {
        "gazetteer_label": "JIANCHANG Jiangxi (\u5efa\u660c)",
        "status": "N",
        "comment": "",
        "gazetteer_uri": "",
        "collection": "courier",
        "source": "MDYZK"
      },
      "id": "166"
    },
    {
      "type": "Feature",
      "label": "\u5ba3\u5316\u9a7f",
      "geometry": {
        "type": "Point",
        "coordinates": [
          115.77419,
          39.26959
        ]
      },
      "properties": {
        "gazetteer_label": "XUANHUAYI Hebei (\u5ba3\u5316\u9a7f)",
        "status": "N",
        "comment": "",
        "gazetteer_uri": "",
        "collection": "courier",
        "source": "MDYZK"
      },
      "id": "167"
    },
    {
      "type": "Feature",
      "label": "\u5357\u6d66\u9a7f",
      "geometry": {
        "type": "Point",
        "coordinates": [
          115.89772,
          28.6749
        ]
      },
      "properties": {
        "gazetteer_label": "NANPU Jiangxi (\u5357\u6d66\u9a7f)",
        "status": "Y",
        "comment": "",
        "gazetteer_uri": "",
        "collection": "courier",
        "source": "MDYZK"
      },
      "id": "168"
    },
    {
      "type": "Feature",
      "label": "\u4ead\u524d\u9a7f",
      "geometry": {
        "type": "Point",
        "coordinates": [
          115.93494,
          30.0792
        ]
      },
      "properties": {
        "gazetteer_label": "TINGQIAN Hubei (\u4ead\u524d\u9a7f)",
        "status": "Y",
        "comment": "",
        "gazetteer_uri": "",
        "collection": "courier",
        "source": "MDYZK"
      },
      "id": "169"
    },
    {
      "type": "Feature",
      "label": "\u9010\u9e7f\u9a7f",
      "geometry": {
        "type": "Point",
        "coordinates": [
          115.96815,
          39.48722
        ]
      },
      "properties": {
        "gazetteer_label": "ZHULUYI Hebei (\u9010\u9e7f\u9a7f)",
        "status": "N",
        "comment": "",
        "gazetteer_uri": "",
        "collection": "courier",
        "source": "MDYZK"
      },
      "id": "170"
    },
    {
      "type": "Feature",
      "label": "\u6d54\u9633\u9a7f",
      "geometry": {
        "type": "Point",
        "coordinates": [
          115.98568,
          29.72236
        ]
      },
      "properties": {
        "gazetteer_label": "XUNYANG Jiangxi (\u6d54\u9633\u9a7f)",
        "status": "Y",
        "comment": "",
        "gazetteer_uri": "",
        "collection": "courier",
        "source": "MDYZK"
      },
      "id": "171"
    },
    {
      "type": "Feature",
      "label": "\u6c7e\u6c34\u9a7f",
      "geometry": {
        "type": "Point",
        "coordinates": [
          115.98756,
          39.24595
        ]
      },
      "properties": {
        "gazetteer_label": "FENSHUI Hebei (\u6c7e\u6c34\u9a7f)",
        "status": "N",
        "comment": "",
        "gazetteer_uri": "",
        "collection": "courier",
        "source": "MDYZK"
      },
      "id": "172"
    },
    {
      "type": "Feature",
      "label": "\u701b\u6d77\u9a7f",
      "geometry": {
        "type": "Point",
        "coordinates": [
          116.08553,
          38.4357
        ]
      },
      "properties": {
        "gazetteer_label": "YINGHAIYI Hebei (\u701b\u6d77\u9a7f)",
        "status": "N",
        "comment": "",
        "gazetteer_uri": "",
        "collection": "courier",
        "source": "MDYZK"
      },
      "id": "173"
    },
    {
      "type": "Feature",
      "label": "\u90d1\u57ce\u9a7f",
      "geometry": {
        "type": "Point",
        "coordinates": [
          116.09048,
          38.70767
        ]
      },
      "properties": {
        "gazetteer_label": "ZHENGCHEN Hebei (\u90d1\u57ce\u9a7f)",
        "status": "Y",
        "comment": "",
        "gazetteer_uri": "",
        "collection": "courier",
        "source": "MDYZK"
      },
      "id": "174"
    },
    {
      "type": "Feature",
      "label": "\u5f52\u4e49\u9a7f",
      "geometry": {
        "type": "Point",
        "coordinates": [
          116.0927,
          38.97588
        ]
      },
      "properties": {
        "gazetteer_label": "GUIYI Hebei (\u5f52\u4e49\u9a7f)",
        "status": "N",
        "comment": "",
        "gazetteer_uri": "",
        "collection": "courier",
        "source": "MDYZK"
      },
      "id": "175"
    },
    {
      "type": "Feature",
      "label": "\u67ab\u9999\u9a7f",
      "geometry": {
        "type": "Point",
        "coordinates": [
          116.21667,
          30.36667
        ]
      },
      "properties": {
        "gazetteer_label": "FENGXIANGYI Anhui (\u67ab\u9999\u9a7f)",
        "status": "Y",
        "comment": "",
        "gazetteer_uri": "",
        "collection": "courier",
        "source": "MDYZK"
      },
      "id": "176"
    },
    {
      "type": "Feature",
      "label": "\u4e50\u57ce\u9a7f",
      "geometry": {
        "type": "Point",
        "coordinates": [
          116.1149,
          38.1907
        ]
      },
      "properties": {
        "gazetteer_label": "LECHENG Hebei (\u4e50\u57ce\u9a7f)",
        "status": "Y",
        "comment": "",
        "gazetteer_uri": "",
        "collection": "courier",
        "source": "MDYZK"
      },
      "id": "177"
    },
    {
      "type": "Feature",
      "label": "\u56fa\u8282\u9a7f",
      "geometry": {
        "type": "Point",
        "coordinates": [
          116.13558,
          39.74125
        ]
      },
      "properties": {
        "gazetteer_label": "LANGXIANG Beijing (\u56fa\u8282\u9a7f)",
        "status": "Y",
        "comment": "",
        "gazetteer_uri": "",
        "collection": "courier",
        "source": "MDYZK"
      },
      "id": "178"
    },
    {
      "type": "Feature",
      "label": "\u961c\u57ce\u9a7f",
      "geometry": {
        "type": "Point",
        "coordinates": [
          116.14471,
          37.86818
        ]
      },
      "properties": {
        "gazetteer_label": "FUCHENG Hebei (\u961c\u57ce\u9a7f)",
        "status": "Y",
        "comment": "",
        "gazetteer_uri": "",
        "collection": "courier",
        "source": "MDYZK"
      },
      "id": "179"
    },
    {
      "type": "Feature",
      "label": "\u9c7c\u4e18\u9a7f",
      "geometry": {
        "type": "Point",
        "coordinates": [
          116.231,
          36.86162
        ]
      },
      "properties": {
        "gazetteer_label": "YUQIU Shandong (\u9c7c\u4e18\u9a7f)",
        "status": "Y",
        "comment": "",
        "gazetteer_uri": "",
        "collection": "courier",
        "source": "MDYZK"
      },
      "id": "180"
    },
    {
      "type": "Feature",
      "label": "\u830c\u5c71\u9a7f",
      "geometry": {
        "type": "Point",
        "coordinates": [
          116.25023,
          36.58662
        ]
      },
      "properties": {
        "gazetteer_label": "CHISHAN Shandong (\u830c\u5c71\u9a7f)",
        "status": "Y",
        "comment": "",
        "gazetteer_uri": "",
        "collection": "courier",
        "source": "MDYZK"
      },
      "id": "181"
    },
    {
      "type": "Feature",
      "label": "\u4e1c\u5149\u9a7f",
      "geometry": {
        "type": "Point",
        "coordinates": [
          116.2581,
          37.68801
        ]
      },
      "properties": {
        "gazetteer_label": "DONGGUANG Hebei (\u4e1c\u5149\u9a7f)",
        "status": "Y",
        "comment": "",
        "gazetteer_uri": "",
        "collection": "courier",
        "source": "MDYZK"
      },
      "id": "182"
    },
    {
      "type": "Feature",
      "label": "\u592a\u6e56",
      "geometry": {
        "type": "Point",
        "coordinates": [
          116.26508,
          30.42006
        ]
      },
      "properties": {
        "gazetteer_label": "TAIHU Anhui (\u592a\u6e56)",
        "status": "Y",
        "comment": "",
        "gazetteer_uri": "",
        "collection": "courier",
        "source": "MDYZK"
      },
      "id": "183"
    },
    {
      "type": "Feature",
      "label": "\u592a\u5e73\u9a7f",
      "geometry": {
        "type": "Point",
        "coordinates": [
          116.27579,
          37.15112
        ]
      },
      "properties": {
        "gazetteer_label": "TAIPING Shandong (\u592a\u5e73\u9a7f)",
        "status": "Y",
        "comment": "",
        "gazetteer_uri": "",
        "collection": "courier",
        "source": "MDYZK"
      },
      "id": "184"
    },
    {
      "type": "Feature",
      "label": "\u5bcc\u5e84\u9a7f",
      "geometry": {
        "type": "Point",
        "coordinates": [
          116.28512,
          38.01704
        ]
      },
      "properties": {
        "gazetteer_label": "FUZHUANG Hebei (\u5bcc\u5e84\u9a7f)",
        "status": "Y",
        "comment": "",
        "gazetteer_uri": "",
        "collection": "courier",
        "source": "MDYZK"
      },
      "id": "185"
    },
    {
      "type": "Feature",
      "label": "\u5b89\u5fb7",
      "geometry": {
        "type": "Point",
        "coordinates": [
          116.28741,
          37.45164
        ]
      },
      "properties": {
        "gazetteer_label": "ANDE Shandong (\u5b89\u5fb7)",
        "status": "Y",
        "comment": "",
        "gazetteer_uri": "",
        "collection": "courier",
        "source": "MDYZK"
      },
      "id": "186"
    },
    {
      "type": "Feature",
      "label": "\u4e1c\u539f\u9a7f",
      "geometry": {
        "type": "Point",
        "coordinates": [
          116.29917,
          35.91034
        ]
      },
      "properties": {
        "gazetteer_label": "DONGYUAN Shandong (\u4e1c\u539f\u9a7f)",
        "status": "Y",
        "comment": "",
        "gazetteer_uri": "",
        "collection": "courier",
        "source": "MDYZK"
      },
      "id": "187"
    },
    {
      "type": "Feature",
      "label": "\u4f1a\u540c\u9986",
      "geometry": {
        "type": "Point",
        "coordinates": [
          116.368,
          39.93143
        ]
      },
      "properties": {
        "gazetteer_label": "HUITONGGUAN Beijing (\u4f1a\u540c\u9986)",
        "status": "N",
        "comment": "",
        "gazetteer_uri": "",
        "collection": "courier",
        "source": "MDYZK"
      },
      "id": "188"
    },
    {
      "type": "Feature",
      "label": "\u6843\u6e90\u9a7f",
      "geometry": {
        "type": "Point",
        "coordinates": [
          116.42907,
          37.15773
        ]
      },
      "properties": {
        "gazetteer_label": "TAOYUAN Shandong (\u6843\u6e90\u9a7f)",
        "status": "Y",
        "comment": "",
        "gazetteer_uri": "",
        "collection": "courier",
        "source": "MDYZK"
      },
      "id": "189"
    },
    {
      "type": "Feature",
      "label": "\u65b0\u6865\u9a7f",
      "geometry": {
        "type": "Point",
        "coordinates": [
          116.48556,
          35.72985
        ]
      },
      "properties": {
        "gazetteer_label": "XINQIAO Shandong (\u65b0\u6865\u9a7f)",
        "status": "Y",
        "comment": "",
        "gazetteer_uri": "",
        "collection": "courier",
        "source": "MDYZK"
      },
      "id": "190"
    },
    {
      "type": "Feature",
      "label": "\u9752\u53e3\u9a7f",
      "geometry": {
        "type": "Point",
        "coordinates": [
          116.5672,
          30.63035
        ]
      },
      "properties": {
        "gazetteer_label": "QINGKOU Anhui (\u9752\u53e3\u9a7f)",
        "status": "Y",
        "comment": "",
        "gazetteer_uri": "",
        "collection": "courier",
        "source": "MDYZK"
      },
      "id": "191"
    },
    {
      "type": "Feature",
      "label": "\u5218\u666e\u9a7f",
      "geometry": {
        "type": "Point",
        "coordinates": [
          116.65239,
          36.94536
        ]
      },
      "properties": {
        "gazetteer_label": "LIUPU Shandong (\u5218\u666e\u9a7f)",
        "status": "Y",
        "comment": "",
        "gazetteer_uri": "",
        "collection": "courier",
        "source": "MDYZK"
      },
      "id": "192"
    },
    {
      "type": "Feature",
      "label": "\u6f5e\u6cb3\u9a7f",
      "geometry": {
        "type": "Point",
        "coordinates": [
          116.65881,
          39.90592
        ]
      },
      "properties": {
        "gazetteer_label": "LUHE Beijing (\u6f5e\u6cb3\u9a7f)",
        "status": "Y",
        "comment": "",
        "gazetteer_uri": "",
        "collection": "courier",
        "source": "MDYZK"
      },
      "id": "193"
    },
    {
      "type": "Feature",
      "label": "\u4e1c\u5317\u7f6e\u9a7f",
      "geometry": {
        "type": "Point",
        "coordinates": [
          116.72324,
          36.55283
        ]
      },
      "properties": {
        "gazetteer_label": "DONGBEIZHIYI Shandong (\u4e1c\u5317\u7f6e\u9a7f)",
        "status": "Y",
        "comment": "",
        "gazetteer_uri": "",
        "collection": "courier",
        "source": "MDYZK"
      },
      "id": "194"
    },
    {
      "type": "Feature",
      "label": "\u5bb4\u57ce\u9a7f",
      "geometry": {
        "type": "Point",
        "coordinates": [
          116.78063,
          36.70108
        ]
      },
      "properties": {
        "gazetteer_label": "YANCHENG Shandong (\u5bb4\u57ce\u9a7f)",
        "status": "Y",
        "comment": "",
        "gazetteer_uri": "",
        "collection": "courier",
        "source": "MDYZK"
      },
      "id": "195"
    },
    {
      "type": "Feature",
      "label": "\u660c\u5e73\u9a7f",
      "geometry": {
        "type": "Point",
        "coordinates": [
          116.8237,
          35.5567
        ]
      },
      "properties": {
        "gazetteer_label": "CHANGPINGYI Shandong (\u660c\u5e73\u9a7f)",
        "status": "Y",
        "comment": "",
        "gazetteer_uri": "",
        "collection": "courier",
        "source": "MDYZK"
      },
      "id": "196"
    },
    {
      "type": "Feature",
      "label": "\u8212\u57ce\u9a7f",
      "geometry": {
        "type": "Point",
        "coordinates": [
          116.93854,
          31.45645
        ]
      },
      "properties": {
        "gazetteer_label": "SHUCHENG Anhui (\u8212\u57ce\u9a7f)",
        "status": "Y",
        "comment": "",
        "gazetteer_uri": "",
        "collection": "courier",
        "source": "MDYZK"
      },
      "id": "197"
    },
    {
      "type": "Feature",
      "label": "\u5415\u4ead\u9a7f",
      "geometry": {
        "type": "Point",
        "coordinates": [
          116.93861,
          31.05228
        ]
      },
      "properties": {
        "gazetteer_label": "LVTING Anhui (\u5415\u4ead\u9a7f)",
        "status": "Y",
        "comment": "",
        "gazetteer_uri": "",
        "collection": "courier",
        "source": "MDYZK"
      },
      "id": "198"
    },
    {
      "type": "Feature",
      "label": "\u90be\u57ce\u9a7f",
      "geometry": {
        "type": "Point",
        "coordinates": [
          116.96844,
          35.40382
        ]
      },
      "properties": {
        "gazetteer_label": "ZHU Shandong (\u90be\u57ce\u9a7f)",
        "status": "Y",
        "comment": "",
        "gazetteer_uri": "",
        "collection": "courier",
        "source": "MDYZK"
      },
      "id": "199"
    },
    {
      "type": "Feature",
      "label": "\u7762\u9633\u9a7f",
      "geometry": {
        "type": "Point",
        "coordinates": [
          116.9714,
          33.64237
        ]
      },
      "properties": {
        "gazetteer_label": "SUIYANGYI Anhui (\u7762\u9633\u9a7f)",
        "status": "N",
        "comment": "",
        "gazetteer_uri": "",
        "collection": "courier",
        "source": "MDYZK"
      },
      "id": "200"
    },
    {
      "type": "Feature",
      "label": "\u8c2d\u57ce\u9a7f",
      "geometry": {
        "type": "Point",
        "coordinates": [
          117.00149,
          36.65013
        ]
      },
      "properties": {
        "gazetteer_label": "TANGCHENGYI Shandong (\u8c2d\u57ce\u9a7f)",
        "status": "N",
        "comment": "",
        "gazetteer_uri": "",
        "collection": "courier",
        "source": "MDYZK"
      },
      "id": "201"
    },
    {
      "type": "Feature",
      "label": "\u4e09\u6cb3\u9a7f",
      "geometry": {
        "type": "Point",
        "coordinates": [
          117.07612,
          39.98279
        ]
      },
      "properties": {
        "gazetteer_label": "SANHE Hebei (\u4e09\u6cb3\u9a7f)",
        "status": "Y",
        "comment": "",
        "gazetteer_uri": "",
        "collection": "courier",
        "source": "MDYZK"
      },
      "id": "202"
    },
    {
      "type": "Feature",
      "label": "\u6ed5\u9633\u9a7f",
      "geometry": {
        "type": "Point",
        "coordinates": [
          117.15816,
          35.08609
        ]
      },
      "properties": {
        "gazetteer_label": "TENGYANG Shandong (\u6ed5\u9633\u9a7f)",
        "status": "Y",
        "comment": "",
        "gazetteer_uri": "",
        "collection": "courier",
        "source": "MDYZK"
      },
      "id": "203"
    },
    {
      "type": "Feature",
      "label": "\u5229\u56fd\u76d1\u9a7f",
      "geometry": {
        "type": "Point",
        "coordinates": [
          117.18768,
          34.26963
        ]
      },
      "properties": {
        "gazetteer_label": "LIGUOJIAN Jiangsu (\u5229\u56fd\u76d1\u9a7f)",
        "status": "N",
        "comment": "",
        "gazetteer_uri": "",
        "collection": "courier",
        "source": "MDYZK"
      },
      "id": "204"
    },
    {
      "type": "Feature",
      "label": "\u91d1\u6597\u9a7f",
      "geometry": {
        "type": "Point",
        "coordinates": [
          117.27646,
          31.86446
        ]
      },
      "properties": {
        "gazetteer_label": "JINDOUYI Anhui (\u91d1\u6597\u9a7f)",
        "status": "Y",
        "comment": "",
        "gazetteer_uri": "",
        "collection": "courier",
        "source": "MDYZK"
      },
      "id": "205"
    },
    {
      "type": "Feature",
      "label": "\u6e14\u9633\u9a7f",
      "geometry": {
        "type": "Point",
        "coordinates": [
          117.40182,
          40.04387
        ]
      },
      "properties": {
        "gazetteer_label": "YUYANG Tianjin (\u6e14\u9633\u9a7f)",
        "status": "Y",
        "comment": "",
        "gazetteer_uri": "",
        "collection": "courier",
        "source": "MDYZK"
      },
      "id": "206"
    },
    {
      "type": "Feature",
      "label": "\u738b\u5e84\u9a7f",
      "geometry": {
        "type": "Point",
        "coordinates": [
          117.4586,
          33.09573
        ]
      },
      "properties": {
        "gazetteer_label": "WANGZHUAN Anhui (\u738b\u5e84\u9a7f)",
        "status": "Y",
        "comment": "",
        "gazetteer_uri": "",
        "collection": "courier",
        "source": "MDYZK"
      },
      "id": "207"
    },
    {
      "type": "Feature",
      "label": "\u56fa\u9547\u9a7f",
      "geometry": {
        "type": "Point",
        "coordinates": [
          117.31171,
          33.31458
        ]
      },
      "properties": {
        "gazetteer_label": "GUZHENYI Anhui (\u56fa\u9547\u9a7f)",
        "status": "Y",
        "comment": "",
        "gazetteer_uri": "",
        "collection": "courier",
        "source": "MDYZK"
      },
      "id": "208"
    },
    {
      "type": "Feature",
      "label": "\u7ea2\u5fc3\u9a7f",
      "geometry": {
        "type": "Point",
        "coordinates": [
          117.64,
          32.9
        ]
      },
      "properties": {
        "gazetteer_label": "HONGXIN Anhui (\u7ea2\u5fc3\u9a7f)",
        "status": "Y",
        "comment": "",
        "gazetteer_uri": "",
        "collection": "courier",
        "source": "MDYZK"
      },
      "id": "209"
    },
    {
      "type": "Feature",
      "label": "\u5b9a\u8fdc",
      "geometry": {
        "type": "Point",
        "coordinates": [
          117.67569,
          32.53025
        ]
      },
      "properties": {
        "gazetteer_label": "DINGYUAN Anhui (\u5b9a\u8fdc)",
        "status": "Y",
        "comment": "",
        "gazetteer_uri": "",
        "collection": "courier",
        "source": "MDYZK"
      },
      "id": "210"
    },
    {
      "type": "Feature",
      "label": "\u9633\u6a0a\u9a7f",
      "geometry": {
        "type": "Point",
        "coordinates": [
          117.75478,
          39.88367
        ]
      },
      "properties": {
        "gazetteer_label": "YANGFAN Hebei (\u9633\u6a0a\u9a7f)",
        "status": "Y",
        "comment": "",
        "gazetteer_uri": "",
        "collection": "courier",
        "source": "MDYZK"
      },
      "id": "211"
    },
    {
      "type": "Feature",
      "label": "\u6c60\u6cb3\u9a7f",
      "geometry": {
        "type": "Point",
        "coordinates": [
          117.9405,
          32.51547
        ]
      },
      "properties": {
        "gazetteer_label": "CHIHE Anhui (\u6c60\u6cb3\u9a7f)",
        "status": "Y",
        "comment": "",
        "gazetteer_uri": "",
        "collection": "courier",
        "source": "MDYZK"
      },
      "id": "212"
    },
    {
      "type": "Feature",
      "label": "\u5efa\u6eaa\u9a7f",
      "geometry": {
        "type": "Point",
        "coordinates": [
          118.10537,
          27.33988
        ]
      },
      "properties": {
        "gazetteer_label": "JIANXI Fujian (\u5efa\u6eaa\u9a7f)",
        "status": "Y",
        "comment": "",
        "gazetteer_uri": "",
        "collection": "courier",
        "source": "MDYZK"
      },
      "id": "213"
    },
    {
      "type": "Feature",
      "label": "\u4e49\u4e30\u9a7f",
      "geometry": {
        "type": "Point",
        "coordinates": [
          118.1349,
          39.8276
        ]
      },
      "properties": {
        "gazetteer_label": "YIFENG Hebei (\u4e49\u4e30\u9a7f)",
        "status": "Y",
        "comment": "",
        "gazetteer_uri": "",
        "collection": "courier",
        "source": "MDYZK"
      },
      "id": "214"
    },
    {
      "type": "Feature",
      "label": "\u5251\u6d66\u9a7f",
      "geometry": {
        "type": "Point",
        "coordinates": [
          118.16918,
          26.64217
        ]
      },
      "properties": {
        "gazetteer_label": "JIANPUYI Fujian (\u5251\u6d66\u9a7f)",
        "status": "Y",
        "comment": "",
        "gazetteer_uri": "",
        "collection": "courier",
        "source": "MDYZK"
      },
      "id": "215"
    },
    {
      "type": "Feature",
      "label": "\u5927\u67f3\u6811\u9a7f",
      "geometry": {
        "type": "Point",
        "coordinates": [
          118.30416,
          32.31699
        ]
      },
      "properties": {
        "gazetteer_label": "DALIUSHU Anhui (\u5927\u67f3\u6811\u9a7f)",
        "status": "N",
        "comment": "",
        "gazetteer_uri": "",
        "collection": "courier",
        "source": "MDYZK"
      },
      "id": "217"
    },
    {
      "type": "Feature",
      "label": "\u57ce\u897f\u9a7f",
      "geometry": {
        "type": "Point",
        "coordinates": [
          118.32378,
          27.03886
        ]
      },
      "properties": {
        "gazetteer_label": "CHENGXIYI Fujian (\u57ce\u897f\u9a7f)",
        "status": "N",
        "comment": "",
        "gazetteer_uri": "",
        "collection": "courier",
        "source": "MDYZK"
      },
      "id": "218"
    },
    {
      "type": "Feature",
      "label": "\u6c5f\u4e1c\u9a7f",
      "geometry": {
        "type": "Point",
        "coordinates": [
          118.6176,
          32.06487
        ]
      },
      "properties": {
        "gazetteer_label": "JIANGDONGYI Jiangsu (\u6c5f\u4e1c\u9a7f)",
        "status": "L",
        "comment": "",
        "gazetteer_uri": "",
        "collection": "courier",
        "source": "MDYZK"
      },
      "id": "220"
    },
    {
      "type": "Feature",
      "label": "\u9ec4\u7530\u9a7f",
      "geometry": {
        "type": "Point",
        "coordinates": [
          118.6751,
          26.42891
        ]
      },
      "properties": {
        "gazetteer_label": "HUANGTIAN Fujian (\u9ec4\u7530\u9a7f)",
        "status": "Y",
        "comment": "",
        "gazetteer_uri": "",
        "collection": "courier",
        "source": "MDYZK"
      },
      "id": "222"
    },
    {
      "type": "Feature",
      "label": "\u4e03\u5bb6\u5cad\u9a7f",
      "geometry": {
        "type": "Point",
        "coordinates": [
          118.46919,
          39.8664
        ]
      },
      "properties": {
        "gazetteer_label": "QIJIALINGYI Hebei (\u4e03\u5bb6\u5cad\u9a7f)",
        "status": "Y",
        "comment": "",
        "gazetteer_uri": "",
        "collection": "courier",
        "source": "MDYZK"
      },
      "id": "223"
    },
    {
      "type": "Feature",
      "label": "\u6c5f\u5b81\u9a7f",
      "geometry": {
        "type": "Point",
        "coordinates": [
          118.76899,
          32.05256
        ]
      },
      "properties": {
        "gazetteer_label": "JIANGNINGYI Jiangsu (\u6c5f\u5b81\u9a7f)",
        "status": "N",
        "comment": "",
        "gazetteer_uri": "",
        "collection": "courier",
        "source": "MDYZK"
      },
      "id": "224"
    },