[
  {
    "properties": {
      "gazetteer_uri": "",
      "collection": "courier",
      "comment": "",
      "gazetteer_label": "YUNNANFU Yunnan (\u4e91\u5357\u5e9c)",
      "source": "PA_1903",
      "status": "L"
    },
    "type": "Feature",
    "label": "\u4e91\u5357\u5e9c",
    "id": "1",
    "geometry": {
      "type": "Point",
      "coordinates": [
        102.71035,
        25.04591
      ]
    }
  },
  {
    "properties": {
      "gazetteer_uri": "",
      "collection": "courier",
      "comment": "",
      "gazetteer_label": "YANGLIN Yunnan (\u6768\u6797)",
      "source": "PA_1903",
      "status": "L"
    },
    "type": "Feature",
    "label": "\u6768\u6797",
    "id": "2",
    "geometry": {
      "type": "Point",
      "coordinates": [
        103.06189,
        25.22011
      ]
    }
  },
  {
    "properties": {
      "gazetteer_uri": "",
      "collection": "courier",
      "comment": "",
      "gazetteer_label": "XUNDIAN GUCHENG Yunnan (\u5bfb\u7538)",
      "source": "PA_1903",
      "status": "B"
    },
    "type": "Feature",
    "label": "\u5bfb\u7538",
    "id": "3",
    "geometry": {
      "type": "Point",
      "coordinates": [
        103.25372,
        25.5622
      ]
    }
  },
  {
    "properties": {
      "gazetteer_uri": "",
      "collection": "courier",
      "comment": "",
      "gazetteer_label": "MALONG Yunnan (\u9a6c\u9f99)",
      "source": "PA_1903",
      "status": "B"
    },
    "type": "Feature",
    "label": "\u9a6c\u9f99",
    "id": "4",
    "geometry": {
      "type": "Point",
      "coordinates": [
        103.58021,
        25.42843
      ]
    }
  },
  {
    "properties": {
      "gazetteer_uri": "",
      "collection": "courier",
      "comment": "",
      "gazetteer_label": "NANNING XIAN Yunnan (\u5357\u5b81\u53bf)",
      "source": "PA_1903",
      "status": "L"
    },
    "type": "Feature",
    "label": "\u5357\u5b81\u53bf",
    "id": "5",
    "geometry": {
      "type": "Point",
      "coordinates": [
        103.79678,
        25.49584
      ]
    }
  },
  {
    "properties": {
      "gazetteer_uri": "",
      "collection": "courier",
      "comment": "",
      "gazetteer_label": "ZHANYI Yunnan (\u6cbe\u76ca)",
      "source": "PA_1903",
      "status": "B"
    },
    "type": "Feature",
    "label": "\u6cbe\u76ca",
    "id": "6",
    "geometry": {
      "type": "Point",
      "coordinates": [
        103.82211,
        25.60993
      ]
    }
  },
  {
    "properties": {
      "gazetteer_uri": "",
      "collection": "courier",
      "comment": "",
      "gazetteer_label": "LANQUANYI Gansu (\u5170\u6cc9\u9a7f)",
      "source": "MDYZK",
      "status": "Y"
    },
    "type": "Feature",
    "label": "\u5170\u6cc9\u9a7f",
    "id": "7",
    "geometry": {
      "type": "Point",
      "coordinates": [
        103.84714,
        36.04703
      ]
    }
  },
  {
    "properties": {
      "gazetteer_uri": "",
      "collection": "courier",
      "comment": "",
      "gazetteer_label": "JINGUANYI Sichuan (\u9526\u5b98\u9a7f)",
      "source": "MDYZK",
      "status": "N"
    },
    "type": "Feature",
    "label": "\u9526\u5b98\u9a7f",
    "id": "8",
    "geometry": {
      "type": "Point",
      "coordinates": [
        104.078,
        30.65038
      ]
    }
  },
  {
    "properties": {
      "gazetteer_uri": "",
      "collection": "courier",
      "comment": "",
      "gazetteer_label": "QINGSHUI Gansu (\u6e05\u6c34\u9a7f)",
      "source": "MDYZK",
      "status": "Y"
    },
    "type": "Feature",
    "label": "\u6e05\u6c34\u9a7f",
    "id": "9",
    "geometry": {
      "type": "Point",
      "coordinates": [
        104.10787,
        35.84682
      ]
    }
  },
  {
    "properties": {
      "gazetteer_uri": "",
      "collection": "courier",
      "comment": "",
      "gazetteer_label": "XINDU Sichuan (\u65b0\u90fd\u9a7f)",
      "source": "MDYZK",
      "status": "Y"
    },
    "type": "Feature",
    "label": "\u65b0\u90fd\u9a7f",
    "id": "10",
    "geometry": {
      "type": "Point",
      "coordinates": [
        104.16055,
        30.83139
      ]
    }
  },
  {
    "properties": {
      "gazetteer_uri": "",
      "collection": "courier",
      "comment": "",
      "gazetteer_label": "YANSHOUYI Gansu (\u5ef6\u5bff\u9a7f)",
      "source": "MDYZK",
      "status": "N"
    },
    "type": "Feature",
    "label": "\u5ef6\u5bff\u9a7f",
    "id": "12",
    "geometry": {
      "type": "Point",
      "coordinates": [
        104.62031,
        35.57509
      ]
    }
  },
  {
    "properties": {
      "gazetteer_uri": "",
      "collection": "courier",
      "comment": "",
      "gazetteer_label": "PU'AN Guizhou (\u666e\u5b89)",
      "source": "MDYZK",
      "status": "Y"
    },
    "type": "Feature",
    "label": "\u666e\u5b89",
    "id": "13",
    "geometry": {
      "type": "Point",
      "coordinates": [
        104.64989,
        25.79314
      ]
    }
  },
  {
    "properties": {
      "gazetteer_uri": "",
      "collection": "courier",
      "comment": "",
      "gazetteer_label": "JINSHANYI Sichuan (\u91d1\u5c71\u9a7f)",
      "source": "MDYZK",
      "status": "Y"
    },
    "type": "Feature",
    "label": "\u91d1\u5c71\u9a7f",
    "id": "14",
    "geometry": {
      "type": "Point",
      "coordinates": [
        104.7493,
        31.45901
      ]
    }
  },
  {
    "properties": {
      "gazetteer_uri": "",
      "collection": "courier",
      "comment": "",
      "gazetteer_label": "XINXING Guizhou (\u65b0\u5174\u9a7f)",
      "source": "MDYZK",
      "status": "Y"
    },
    "type": "Feature",
    "label": "\u65b0\u5174\u9a7f",
    "id": "15",
    "geometry": {
      "type": "Point",
      "coordinates": [
        104.95208,
        25.78841
      ]
    }
  },
  {
    "properties": {
      "gazetteer_uri": "",
      "collection": "courier",
      "comment": "",
      "gazetteer_label": "BAONINGYI Gansu (\u4fdd\u5b81\u9a7f)",
      "source": "MDYZK",
      "status": "N"
    },
    "type": "Feature",
    "label": "\u4fdd\u5b81\u9a7f",
    "id": "16",
    "geometry": {
      "type": "Point",
      "coordinates": [
        105.05614,
        35.6942
      ]
    }
  },
  {
    "properties": {
      "gazetteer_uri": "",
      "collection": "courier",
      "comment": "",
      "gazetteer_label": "WEIJIUYI Guizhou (\u5c3e\u9152\u9a7f)",
      "source": "MDYZK",
      "status": "L"
    },
    "type": "Feature",
    "label": "\u5c3e\u9152\u9a7f",
    "id": "17",
    "geometry": {
      "type": "Point",
      "coordinates": [
        105.21588,
        25.83347
      ]
    }
  },
  {
    "properties": {
      "gazetteer_uri": "",
      "collection": "courier",
      "comment": "",
      "gazetteer_label": "CHACHENG Guizhou (\u67e5\u57ce)",
      "source": "MDYZK",
      "status": "Y"
    },
    "type": "Feature",
    "label": "\u67e5\u57ce",
    "id": "18",
    "geometry": {
      "type": "Point",
      "coordinates": [
        105.48582,
        25.91021
      ]
    }
  },
  {
    "properties": {
      "gazetteer_uri": "",
      "collection": "courier",
      "comment": "",
      "gazetteer_label": "JINGYANG Gansu (\u6cfe\u9633\u9a7f)",
      "source": "MDYZK",
      "status": "Y"
    },
    "type": "Feature",
    "label": "\u6cfe\u9633\u9a7f",
    "id": "19",
    "geometry": {
      "type": "Point",
      "coordinates": [
        105.72882,
        35.5241
      ]
    }
  },
  {
    "properties": {
      "gazetteer_uri": "",
      "collection": "courier",
      "comment": "",
      "gazetteer_label": "ANZHUANG Guizhou (\u5b89\u5e84\u9a7f)",
      "source": "MDYZK",
      "status": "Y"
    },
    "type": "Feature",
    "label": "\u5b89\u5e84\u9a7f",
    "id": "20",
    "geometry": {
      "type": "Point",
      "coordinates": [
        105.76356,
        26.0546
      ]
    }
  },
  {
    "properties": {
      "gazetteer_uri": "",
      "collection": "courier",
      "comment": "",
      "gazetteer_label": "WENJINYI Sichuan (\u95ee\u6d25\u9a7f)",
      "source": "MDYZK",
      "status": "Y"
    },
    "type": "Feature",
    "label": "\u95ee\u6d25\u9a7f",
    "id": "21",
    "geometry": {
      "type": "Point",
      "coordinates": [
        105.83299,
        32.44389
      ]
    }
  },
  {
    "properties": {
      "gazetteer_uri": "",
      "collection": "courier",
      "comment": "",
      "gazetteer_label": "PULIYI Guizhou (\u666e\u5229\u9a7f)",
      "source": "MDYZK",
      "status": "N"
    },
    "type": "Feature",
    "label": "\u666e\u5229\u9a7f",
    "id": "22",
    "geometry": {
      "type": "Point",
      "coordinates": [
        105.92786,
        26.24324
      ]
    }
  },
  {
    "properties": {
      "gazetteer_uri": "",
      "collection": "courier",
      "comment": "",
      "gazetteer_label": "LONGCHENG Ningxia (\u9686\u57ce\u9a7f)",
      "source": "MDYZK",
      "status": "Y"
    },
    "type": "Feature",
    "label": "\u9686\u57ce\u9a7f",
    "id": "23",
    "geometry": {
      "type": "Point",
      "coordinates": [
        106.12224,
        35.61709
      ]
    }
  },
  {
    "properties": {
      "gazetteer_uri": "",
      "collection": "courier",
      "comment": "",
      "gazetteer_label": "PINGBA Guizhou (\u5e73\u575d\u9a7f)",
      "source": "MDYZK",
      "status": "Y"
    },
    "type": "Feature",
    "label": "\u5e73\u575d\u9a7f",
    "id": "24",
    "geometry": {
      "type": "Point",
      "coordinates": [
        106.26086,
        26.41779
      ]
    }
  },
  {
    "properties": {
      "gazetteer_uri": "",
      "collection": "courier",
      "comment": "",
      "gazetteer_label": "WEIQING Guizhou (\u5a01\u6e05\u9a7f)",
      "source": "MDYZK",
      "status": "Y"
    },
    "type": "Feature",
    "label": "\u5a01\u6e05\u9a7f",
    "id": "25",
    "geometry": {
      "type": "Point",
      "coordinates": [
        106.46762,
        26.55605
      ]
    }
  },
  {
    "properties": {
      "gazetteer_uri": "",
      "collection": "courier",
      "comment": "",
      "gazetteer_label": "FENGXIANG Shaanxi (\u51e4\u53bf)",
      "source": "MDYZK",
      "status": "N"
    },
    "type": "Feature",
    "label": "\u51e4\u53bf",
    "id": "26",
    "geometry": {
      "type": "Point",
      "coordinates": [
        106.62294,
        33.94525
      ]
    }
  },
  {
    "properties": {
      "gazetteer_uri": "",
      "collection": "courier",
      "comment": "",
      "gazetteer_label": "WATING Ningxia (\u74e6\u4ead\u9a7f)",
      "source": "MDYZK",
      "status": "Y"
    },
    "type": "Feature",
    "label": "\u74e6\u4ead\u9a7f",
    "id": "27",
    "geometry": {
      "type": "Point",
      "coordinates": [
        106.31997,
        35.69139
      ]
    }
  },
  {
    "properties": {
      "gazetteer_uri": "",
      "collection": "courier",
      "comment": "",
      "gazetteer_label": "GAOPING Gansu (\u9ad8\u5e73\u9a7f)",
      "source": "MDYZK",
      "status": "Y"
    },
    "type": "Feature",
    "label": "\u9ad8\u5e73\u9a7f",
    "id": "28",
    "geometry": {
      "type": "Point",
      "coordinates": [
        106.68566,
        35.53585
      ]
    }
  },
  {
    "properties": {
      "gazetteer_uri": "",
      "collection": "courier",
      "comment": "",
      "gazetteer_label": "HUANGHUA Guizhou (\u8d35\u5dde\u9a7f)",
      "source": "MDYZK",
      "status": "N"
    },
    "type": "Feature",
    "label": "\u8d35\u5dde\u9a7f",
    "id": "29",
    "geometry": {
      "type": "Point",
      "coordinates": [
        106.70911,
        26.58078
      ]
    }
  },
  {
    "properties": {
      "gazetteer_uri": "",
      "collection": "courier",
      "comment": "",
      "gazetteer_label": "MIANXIAN Shaanxi (\u52c9\u53bf)",
      "source": "PA_1903",
      "status": "L"
    },
    "type": "Feature",
    "label": "\u52c9\u53bf",
    "id": "30",
    "geometry": {
      "type": "Point",
      "coordinates": [
        106.7748,
        33.1379
      ]
    }
  },
  {
    "properties": {
      "gazetteer_uri": "",
      "collection": "courier",
      "comment": "",
      "gazetteer_label": "BAOCHENG Shaanxi (\u8912\u57ce)",
      "source": "MDYZK",
      "status": "Y"
    },
    "type": "Feature",
    "label": "\u8912\u57ce",
    "id": "31",
    "geometry": {
      "type": "Point",
      "coordinates": [
        106.96926,
        33.20039
      ]
    }
  },
  {
    "properties": {
      "gazetteer_uri": "",
      "collection": "courier",
      "comment": "",
      "gazetteer_label": "LONGLI Guizhou (\u9f99\u91cc\u9a7f)",
      "source": "MDYZK",
      "status": "Y"
    },
    "type": "Feature",
    "label": "\u9f99\u91cc\u9a7f",
    "id": "32",
    "geometry": {
      "type": "Point",
      "coordinates": [
        106.98106,
        26.45834
      ]
    }
  },
  {
    "properties": {
      "gazetteer_uri": "",
      "collection": "courier",
      "comment": "",
      "gazetteer_label": "CHENCANG Shaanxi (\u9648\u4ed3\u9a7f)",
      "source": "MDYZK",
      "status": "Y"
    },
    "type": "Feature",
    "label": "\u9648\u4ed3\u9a7f",
    "id": "33",
    "geometry": {
      "type": "Point",
      "coordinates": [
        107.14039,
        34.38187
      ]
    }
  },
  {
    "properties": {
      "gazetteer_uri": "",
      "collection": "courier",
      "comment": "",
      "gazetteer_label": "BAISHUI Gansu (\u767d\u6c34\u9a7f)",
      "source": "MDYZK",
      "status": "Y"
    },
    "type": "Feature",
    "label": "\u767d\u6c34\u9a7f",
    "id": "34",
    "geometry": {
      "type": "Point",
      "coordinates": [
        106.97579,
        35.42942
      ]
    }
  },
  {
    "properties": {
      "gazetteer_uri": "",
      "collection": "courier",
      "comment": "",
      "gazetteer_label": "XINTIAN Guizhou (\u65b0\u6dfb\u9a7f)",
      "source": "MDYZK",
      "status": "Y"
    },
    "type": "Feature",
    "label": "\u65b0\u6dfb\u9a7f",
    "id": "35",
    "geometry": {
      "type": "Point",
      "coordinates": [
        107.23962,
        26.58565
      ]
    }
  },
  {
    "properties": {
      "gazetteer_uri": "",
      "collection": "courier",
      "comment": "",
      "gazetteer_label": "WAYUN Gansu (\u74e6\u4e91\u9a7f)",
      "source": "MDYZK",
      "status": "Y"
    },
    "type": "Feature",
    "label": "\u74e6\u4e91\u9a7f",
    "id": "36",
    "geometry": {
      "type": "Point",
      "coordinates": [
        107.36339,
        35.32881
      ]
    }
  },
  {
    "properties": {
      "gazetteer_uri": "",
      "collection": "courier",
      "comment": "",
      "gazetteer_label": "QIZHOU Shaanxi (\u5c90\u5468\u9a7f)",
      "source": "MDYZK",
      "status": "Y"
    },
    "type": "Feature",
    "label": "\u5c90\u5468\u9a7f",
    "id": "37",
    "geometry": {
      "type": "Point",
      "coordinates": [
        107.62709,
        34.43964
      ]
    }
  },
  {
    "properties": {
      "gazetteer_uri": "",
      "collection": "courier",
      "comment": "",
      "gazetteer_label": "QINGPING Guizhou (\u6e05\u5e73\u9a7f)",
      "source": "MDYZK",
      "status": "Y"
    },
    "type": "Feature",
    "label": "\u6e05\u5e73\u9a7f",
    "id": "38",
    "geometry": {
      "type": "Point",
      "coordinates": [
        107.78898,
        26.65832
      ]
    }
  },
  {
    "properties": {
      "gazetteer_uri": "",
      "collection": "courier",
      "comment": "",
      "gazetteer_label": "YILUYI Shaanxi (\u5b9c\u7984\u9a7f)",
      "source": "MDYZK",
      "status": "N"
    },
    "type": "Feature",
    "label": "\u5b9c\u7984\u9a7f",
    "id": "39",
    "geometry": {
      "type": "Point",
      "coordinates": [
        107.78932,
        35.20544
      ]
    }
  },
  {
    "properties": {
      "gazetteer_uri": "",
      "collection": "courier",
      "comment": "",
      "gazetteer_label": "FENGQUAN Shaanxi (\u51e4\u6cc9\u9a7f)",
      "source": "MDYZK",
      "status": "Y"
    },
    "type": "Feature",
    "label": "\u51e4\u6cc9\u9a7f",
    "id": "40",
    "geometry": {
      "type": "Point",
      "coordinates": [
        107.86849,
        34.36182
      ]
    }
  },
  {
    "properties": {
      "gazetteer_uri": "",
      "collection": "courier",
      "comment": "",
      "gazetteer_label": "YONG'AN Shaanxi (\u6c38\u5b89\u9a7f)",
      "source": "MDYZK",
      "status": "Y"
    },
    "type": "Feature",
    "label": "\u6c38\u5b89\u9a7f",
    "id": "42",
    "geometry": {
      "type": "Point",
      "coordinates": [
        108.04397,
        34.81275
      ]
    }
  },
  {
    "properties": {
      "gazetteer_uri": "",
      "collection": "courier",
      "comment": "",
      "gazetteer_label": "XINPING Shaanxi (\u65b0\u5e73\u9a7f)",
      "source": "MDYZK",
      "status": "Y"
    },
    "type": "Feature",
    "label": "\u65b0\u5e73\u9a7f",
    "id": "43",
    "geometry": {
      "type": "Point",
      "coordinates": [
        108.07799,
        35.03966
      ]
    }
  },
  {
    "properties": {
      "gazetteer_uri": "",
      "collection": "courier",
      "comment": "",
      "gazetteer_label": "TAICHENGYI Shaanxi (\u90b0\u57ce\u9a7f)",
      "source": "MDYZK",
      "status": "N"
    },
    "type": "Feature",
    "label": "\u90b0\u57ce\u9a7f",
    "id": "44",
    "geometry": {
      "type": "Point",
      "coordinates": [
        108.1051,
        34.33205
      ]
    }
  },
  {
    "properties": {
      "gazetteer_uri": "",
      "collection": "courier",
      "comment": "",
      "gazetteer_label": "PIANQIAO Guizhou (\u504f\u6865\u9a7f)",
      "source": "MDYZK",
      "status": "Y"
    },
    "type": "Feature",
    "label": "\u504f\u6865\u9a7f",
    "id": "45",
    "geometry": {
      "type": "Point",
      "coordinates": [
        108.11893,
        27.03727
      ]
    }
  },
  {
    "properties": {
      "gazetteer_uri": "",
      "collection": "courier",
      "comment": "",
      "gazetteer_label": "WEISHENG Shaanxi (\u5a01\u80dc\u9a7f)",
      "source": "MDYZK",
      "status": "Y"
    },
    "type": "Feature",
    "label": "\u5a01\u80dc\u9a7f",
    "id": "46",
    "geometry": {
      "type": "Point",
      "coordinates": [
        108.2356,
        34.5303
      ]
    }
  },
  {
    "properties": {
      "gazetteer_uri": "",
      "collection": "courier",
      "comment": "",
      "gazetteer_label": "ZHENYUAN Guizhou (\u9547\u8fdc\u9a7f)",
      "source": "MDYZK",
      "status": "Y"
    },
    "type": "Feature",
    "label": "\u9547\u8fdc\u9a7f",
    "id": "47",
    "geometry": {
      "type": "Point",
      "coordinates": [
        108.41845,
        27.05426
      ]
    }
  },
  {
    "properties": {
      "gazetteer_uri": "",
      "collection": "courier",
      "comment": "",
      "gazetteer_label": "BAIQU Shaanxi (\u767d\u6e20\u9a7f)",
      "source": "MDYZK",
      "status": "Y"
    },
    "type": "Feature",
    "label": "\u767d\u6e20\u9a7f",
    "id": "48",
    "geometry": {
      "type": "Point",
      "coordinates": [
        108.4826,
        34.29872
      ]
    }
  },
  {
    "properties": {
      "gazetteer_uri": "",
      "collection": "courier",
      "comment": "",
      "gazetteer_label": "DIANZHANG Shaanxi (\u5e97\u5f20)",
      "source": "PA_1903",
      "status": "L"
    },
    "type": "Feature",
    "label": "\u5e97\u5f20",
    "id": "49",
    "geometry": {
      "type": "Point",
      "coordinates": [
        108.5271,
        34.42854
      ]
    }
  },
  {
    "properties": {
      "gazetteer_uri": "",
      "collection": "courier",
      "comment": "",
      "gazetteer_label": "QINGLANG Guizhou (\u6e05\u6d6a\u536b)",
      "source": "MDYZK",
      "status": "Y"
    },
    "type": "Feature",
    "label": "\u6e05\u6d6a\u536b",
    "id": "50",
    "geometry": {
      "type": "Point",
      "coordinates": [
        108.73038,
        27.12668
      ]
    }
  },
  {
    "properties": {
      "gazetteer_uri": "",
      "collection": "courier",
      "comment": "",
      "gazetteer_label": "PINGXI Guizhou (\u5e73\u6eaa\u9a7f)",
      "source": "MDYZK",
      "status": "Y"
    },
    "type": "Feature",
    "label": "\u5e73\u6eaa\u9a7f",
    "id": "51",
    "geometry": {
      "type": "Point",
      "coordinates": [
        108.91154,
        27.23593
      ]
    }
  },
  {
    "properties": {
      "gazetteer_uri": "",
      "collection": "courier",
      "comment": "",
      "gazetteer_label": "JINGZHAO Shaanxi (\u4eac\u5146\u9a7f)",
      "source": "MDYZK",
      "status": "Y"
    },
    "type": "Feature",
    "label": "\u4eac\u5146\u9a7f",
    "id": "52",
    "geometry": {
      "type": "Point",
      "coordinates": [
        108.94421,
        34.26661
      ]
    }
  },
  {
    "properties": {
      "gazetteer_uri": "",
      "collection": "courier",
      "comment": "",
      "gazetteer_label": "HUANGZHOU Hunan (\u6643\u5dde\u9a7f)",
      "source": "MDYZK",
      "status": "Y"
    },
    "type": "Feature",
    "label": "\u6643\u5dde\u9a7f",
    "id": "53",
    "geometry": {
      "type": "Point",
      "coordinates": [
        109.19851,
        27.3817
      ]
    }
  },
  {
    "properties": {
      "gazetteer_uri": "",
      "collection": "courier",
      "comment": "",
      "gazetteer_label": "XINFENG Shaanxi (\u65b0\u4e30\u9a7f)",
      "source": "MDYZK",
      "status": "Y"
    },
    "type": "Feature",
    "label": "\u65b0\u4e30\u9a7f",
    "id": "54",
    "geometry": {
      "type": "Point",
      "coordinates": [
        109.2383,
        34.43141
      ]
    }
  },
  {
    "properties": {
      "gazetteer_uri": "",
      "collection": "courier",
      "comment": "",
      "gazetteer_label": "FENGYUAN Shaanxi (\u4e30\u539f\u9a7f)",
      "source": "MDYZK",
      "status": "Y"
    },
    "type": "Feature",
    "label": "\u4e30\u539f\u9a7f",
    "id": "55",
    "geometry": {
      "type": "Point",
      "coordinates": [
        109.50124,
        34.503
      ]
    }
  },
  {
    "properties": {
      "gazetteer_uri": "",
      "collection": "courier",
      "comment": "",
      "gazetteer_label": "HUASHAN Shaanxi (\u534e\u5c71\u9a7f)",
      "source": "MDYZK",
      "status": "Y"
    },
    "type": "Feature",
    "label": "\u534e\u5c71\u9a7f",
    "id": "56",
    "geometry": {
      "type": "Point",
      "coordinates": [
        110.0784,
        34.53443
      ]
    }
  },
  {
    "properties": {
      "gazetteer_uri": "",
      "collection": "courier",
      "comment": "",
      "gazetteer_label": "TONGJIN Shaanxi (\u6f7c\u6d25\u9a7f)",
      "source": "MDYZK",
      "status": "Y"
    },
    "type": "Feature",
    "label": "\u6f7c\u6d25\u9a7f",
    "id": "57",
    "geometry": {
      "type": "Point",
      "coordinates": [
        110.08936,
        34.56831
      ]
    }
  },
  {
    "properties": {
      "gazetteer_uri": "",
      "collection": "courier",
      "comment": "",
      "gazetteer_label": "CHUANXIYI Hunan (\u8239\u6eaa\u9a7f)",
      "source": "MDYZK",
      "status": "Y"
    },
    "type": "Feature",
    "label": "\u8239\u6eaa\u9a7f",
    "id": "58",
    "geometry": {
      "type": "Point",
      "coordinates": [
        110.15422,
        28.28003
      ]
    }
  },
  {
    "properties": {
      "gazetteer_uri": "",
      "collection": "courier",
      "comment": "",
      "gazetteer_label": "CHENYANGSHUIYI Hunan (\u8fb0\u9633\u6c34\u9a7f)",
      "source": "MDYZK",
      "status": "Y"
    },
    "type": "Feature",
    "label": "\u8fb0\u9633\u6c34\u9a7f",
    "id": "59",
    "geometry": {
      "type": "Point",
      "coordinates": [
        110.18265,
        28.01848
      ]
    }
  },
  {
    "properties": {
      "gazetteer_uri": "",
      "collection": "courier",
      "comment": "",
      "gazetteer_label": "TONGGUAN Shaanxi (\u6f7c\u5173\u9a7f)",
      "source": "MDYZK",
      "status": "Y"
    },
    "type": "Feature",
    "label": "\u6f7c\u5173\u9a7f",
    "id": "60",
    "geometry": {
      "type": "Point",
      "coordinates": [
        110.27365,
        34.59881
      ]
    }
  },
  {
    "properties": {
      "gazetteer_uri": "",
      "collection": "courier",
      "comment": "",
      "gazetteer_label": "DONGJIANG Guangxi (\u4e1c\u6c5f\u9a7f)",
      "source": "MDYZK",
      "status": "Y"
    },
    "type": "Feature",
    "label": "\u4e1c\u6c5f\u9a7f",
    "id": "61",
    "geometry": {
      "type": "Point",
      "coordinates": [
        110.28626,
        25.28006
      ]
    }
  },
  {
    "properties": {
      "gazetteer_uri": "",
      "collection": "courier",
      "comment": "",
      "gazetteer_label": "DALONG Guangxi (\u5927\u9f99\u9a7f)",
      "source": "MDYZK",
      "status": "Y"
    },
    "type": "Feature",
    "label": "\u5927\u9f99\u9a7f",
    "id": "62",
    "geometry": {
      "type": "Point",
      "coordinates": [
        110.38369,
        25.4632
      ]
    }
  },
  {
    "properties": {
      "gazetteer_uri": "",
      "collection": "courier",
      "comment": "",
      "gazetteer_label": "YIRONGYI Hunan (\u6021\u5bb9\u9a7f)",
      "source": "MDYZK",
      "status": "Y"
    },
    "type": "Feature",
    "label": "\u6021\u5bb9\u9a7f",
    "id": "63",
    "geometry": {
      "type": "Point",
      "coordinates": [
        110.39697,
        28.45819
      ]
    }
  },
  {
    "properties": {
      "gazetteer_uri": "",
      "collection": "courier",
      "comment": "",
      "gazetteer_label": "FANQIAOYI Shanxi (\u6a0a\u6865\u9a7f)",
      "source": "MDYZK",
      "status": "Y"
    },
    "type": "Feature",
    "label": "\u6a0a\u6865\u9a7f",
    "id": "64",
    "geometry": {
      "type": "Point",
      "coordinates": [
        110.596,
        35.056
      ]
    }
  },
  {
    "properties": {
      "gazetteer_uri": "",
      "collection": "courier",
      "comment": "",
      "gazetteer_label": "BAIYUNYI Guangxi (\u767d\u4e91\u9a7f)",
      "source": "MDYZK",
      "status": "N"
    },
    "type": "Feature",
    "label": "\u767d\u4e91\u9a7f",
    "id": "65",
    "geometry": {
      "type": "Point",
      "coordinates": [
        110.66587,
        25.61313
      ]
    }
  },
  {
    "properties": {
      "gazetteer_uri": "",
      "collection": "courier",
      "comment": "",
      "gazetteer_label": "HONGZHI Shanxi (\u6cd3\u829d\u9a7f)",
      "source": "MDYZK",
      "status": "Y"
    },
    "type": "Feature",
    "label": "\u6cd3\u829d\u9a7f",
    "id": "66",
    "geometry": {
      "type": "Point",
      "coordinates": [
        110.95201,
        35.06637
      ]
    }
  },
  {
    "properties": {
      "gazetteer_uri": "",
      "collection": "courier",
      "comment": "",
      "gazetteer_label": "CHENGNAN Guangxi (\u57ce\u5357\u9a7f)",
      "source": "MDYZK",
      "status": "Y"
    },
    "type": "Feature",
    "label": "\u57ce\u5357\u9a7f",
    "id": "67",
    "geometry": {
      "type": "Point",
      "coordinates": [
        111.065,
        25.93181
      ]
    }
  },
  {
    "properties": {
      "gazetteer_uri": "",
      "collection": "courier",
      "comment": "",
      "gazetteer_label": "SUCHUANYI Shanxi (\u6d91\u5ddd\u9a7f)",
      "source": "MDYZK",
      "status": "N"
    },
    "type": "Feature",
    "label": "\u6d91\u5ddd\u9a7f",
    "id": "68",
    "geometry": {
      "type": "Point",
      "coordinates": [
        111.21721,
        35.35772
      ]
    }
  },
  {
    "properties": {
      "gazetteer_uri": "",
      "collection": "courier",
      "comment": "",
      "gazetteer_label": "MENGCHENGYI Shanxi (\u8499\u57ce\u9a7f)",
      "source": "MDYZK",
      "status": "Y"
    },
    "type": "Feature",
    "label": "\u8499\u57ce\u9a7f",
    "id": "69",
    "geometry": {
      "type": "Point",
      "coordinates": [
        111.44948,
        35.7921
      ]
    }
  },
  {
    "properties": {
      "gazetteer_uri": "",
      "collection": "courier",
      "comment": "",
      "gazetteer_label": "TAOYUAN Hunan (\u6843\u6e90\u9a7f)",
      "source": "MDYZK",
      "status": "Y"
    },
    "type": "Feature",
    "label": "\u6843\u6e90\u9a7f",
    "id": "70",
    "geometry": {
      "type": "Point",
      "coordinates": [
        111.47777,
        28.9016
      ]
    }
  },
  {
    "properties": {
      "gazetteer_uri": "",
      "collection": "courier",
      "comment": "",
      "gazetteer_label": "JIANXIONG Shanxi (\u5efa\u96c4\u9a7f)",
      "source": "MDYZK",
      "status": "Y"
    },
    "type": "Feature",
    "label": "\u5efa\u96c4\u9a7f",
    "id": "71",
    "geometry": {
      "type": "Point",
      "coordinates": [
        111.51543,
        36.07804
      ]
    }
  },
  {
    "properties": {
      "gazetteer_uri": "",
      "collection": "courier",
      "comment": "",
      "gazetteer_label": "LINGLING Hunan (\u96f6\u9675)",
      "source": "PA_1903",
      "status": "N"
    },
    "type": "Feature",
    "label": "\u96f6\u9675",
    "id": "72",
    "geometry": {
      "type": "Point",
      "coordinates": [
        111.61256,
        26.21034
      ]
    }
  },
  {
    "properties": {
      "gazetteer_uri": "",
      "collection": "courier",
      "comment": "",
      "gazetteer_label": "PUJIANYI Shanxi (\u666e\u6da7\u9a7f)",
      "source": "MDYZK",
      "status": "N"
    },
    "type": "Feature",
    "label": "\u666e\u6da7\u9a7f",
    "id": "73",
    "geometry": {
      "type": "Point",
      "coordinates": [
        111.68291,
        36.2594
      ]
    }
  },
  {
    "properties": {
      "gazetteer_uri": "",
      "collection": "courier",
      "comment": "",
      "gazetteer_label": "DALONG Hunan (\u5927\u9f99\u9a7f)",
      "source": "MDYZK",
      "status": "Y"
    },
    "type": "Feature",
    "label": "\u5927\u9f99\u9a7f",
    "id": "74",
    "geometry": {
      "type": "Point",
      "coordinates": [
        111.6913,
        29.03481
      ]
    }
  },
  {
    "properties": {
      "gazetteer_uri": "",
      "collection": "courier",
      "comment": "",
      "gazetteer_label": "HUOSHAN Shanxi (\u970d\u5c71\u9a7f)",
      "source": "MDYZK",
      "status": "Y"
    },
    "type": "Feature",
    "label": "\u970d\u5c71\u9a7f",
    "id": "75",
    "geometry": {
      "type": "Point",
      "coordinates": [
        111.72808,
        36.56382
      ]
    }
  },
  {
    "properties": {
      "gazetteer_uri": "",
      "collection": "courier",
      "comment": "",
      "gazetteer_label": "LANJIANGYI Hunan (\u5170\u6c5f\u9a7f)",
      "source": "MDYZK",
      "status": "Y"
    },
    "type": "Feature",
    "label": "\u5170\u6c5f\u9a7f",
    "id": "76",
    "geometry": {
      "type": "Point",
      "coordinates": [
        111.75699,
        29.64015
      ]
    }
  },
  {
    "properties": {
      "gazetteer_uri": "",
      "collection": "courier",
      "comment": "",
      "gazetteer_label": "RUISHI Shanxi (\u745e\u77f3\u9a7f)",
      "source": "MDYZK",
      "status": "Y"
    },
    "type": "Feature",
    "label": "\u745e\u77f3\u9a7f",
    "id": "77",
    "geometry": {
      "type": "Point",
      "coordinates": [
        111.77621,
        36.84215
      ]
    }
  },
  {
    "properties": {
      "gazetteer_uri": "",
      "collection": "courier",
      "comment": "",
      "gazetteer_label": "YITANG Shanxi (\u4e49\u68e0\u9a7f)",
      "source": "MDYZK",
      "status": "Y"
    },
    "type": "Feature",
    "label": "\u4e49\u68e0\u9a7f",
    "id": "78",
    "geometry": {
      "type": "Point",
      "coordinates": [
        111.91216,
        37.02647
      ]
    }
  },
  {
    "properties": {
      "gazetteer_uri": "",
      "collection": "courier",
      "comment": "",
      "gazetteer_label": "SANWUYI Hunan (\u4e09\u543e\u9a7f)",
      "source": "MDYZK",
      "status": "N"
    },
    "type": "Feature",
    "label": "\u4e09\u543e\u9a7f",
    "id": "79",
    "geometry": {
      "type": "Point",
      "coordinates": [
        111.8559,
        26.59169
      ]
    }
  },
  {
    "properties": {
      "gazetteer_uri": "",
      "collection": "courier",
      "comment": "",
      "gazetteer_label": "CHANLING Hubei (\u5b71\u9675\u9a7f)",
      "source": "MDYZK",
      "status": "Y"
    },
    "type": "Feature",
    "label": "\u5b71\u9675\u9a7f",
    "id": "80",
    "geometry": {
      "type": "Point",
      "coordinates": [
        112.0781,
        29.9145
      ]
    }
  },
  {
    "properties": {
      "gazetteer_uri": "",
      "collection": "courier",
      "comment": "",
      "gazetteer_label": "HANJIANGYI Hubei (\u6c49\u6c5f\u9a7f)",
      "source": "MDYZK",
      "status": "N"
    },
    "type": "Feature",
    "label": "\u6c49\u6c5f\u9a7f",
    "id": "81",
    "geometry": {
      "type": "Point",
      "coordinates": [
        112.15586,
        32.02028
      ]
    }
  },
  {
    "properties": {
      "gazetteer_uri": "",
      "collection": "courier",
      "comment": "",
      "gazetteer_label": "JINGNAN Hubei (\u8346\u5357\u9a7f)",
      "source": "MDYZK",
      "status": "Y"
    },
    "type": "Feature",
    "label": "\u8346\u5357\u9a7f",
    "id": "82",
    "geometry": {
      "type": "Point",
      "coordinates": [
        112.19077,
        30.35044
      ]
    }
  },
  {
    "properties": {
      "gazetteer_uri": "",
      "collection": "courier",
      "comment": "",
      "gazetteer_label": "JINGSHANYI Hubei (\u8346\u5c71\u9a7f)",
      "source": "MDYZK",
      "status": "Y"
    },
    "type": "Feature",
    "label": "\u8346\u5c71\u9a7f",
    "id": "83",
    "geometry": {
      "type": "Point",
      "coordinates": [
        112.19842,
        31.02873
      ]
    }
  },
  {
    "properties": {
      "gazetteer_uri": "",
      "collection": "courier",
      "comment": "",
      "gazetteer_label": "HONGSHANYI Shanxi (\u6d2a\u5584\u9a7f)",
      "source": "MDYZK",
      "status": "Y"
    },
    "type": "Feature",
    "label": "\u6d2a\u5584\u9a7f",
    "id": "84",
    "geometry": {
      "type": "Point",
      "coordinates": [
        112.2168,
        37.28425
      ]
    }
  },
  {
    "properties": {
      "gazetteer_uri": "",
      "collection": "courier",
      "comment": "",
      "gazetteer_label": "YANCHENG Hubei (\u9122\u57ce\u9a7f)",
      "source": "MDYZK",
      "status": "Y"
    },
    "type": "Feature",
    "label": "\u9122\u57ce\u9a7f",
    "id": "85",
    "geometry": {
      "type": "Point",
      "coordinates": [
        112.26013,
        31.7107
      ]
    }
  },
  {
    "properties": {
      "gazetteer_uri": "",
      "collection": "courier",
      "comment": "",
      "gazetteer_label": "QIXIAN Shanxi (\u7941\u53bf)",
      "source": "MDYZK",
      "status": "Y"
    },
    "type": "Feature",
    "label": "\u7941\u53bf",
    "id": "86",
    "geometry": {
      "type": "Point",
      "coordinates": [
        112.3153,
        37.35382
      ]
    }
  },
  {
    "properties": {
      "gazetteer_uri": "",
      "collection": "courier",
      "comment": "",
      "gazetteer_label": "TUANYANG Henan (\u6e4d\u9633\u9a7f)",
      "source": "MDYZK",
      "status": "Y"
    },
    "type": "Feature",
    "label": "\u6e4d\u9633\u9a7f",
    "id": "87",
    "geometry": {
      "type": "Point",
      "coordinates": [
        112.35843,
        32.52487
      ]
    }
  },
  {
    "properties": {
      "gazetteer_uri": "",
      "collection": "courier",
      "comment": "",
      "gazetteer_label": "XUGOU Shanxi (\u5f90\u6c9f)",
      "source": "MDYZK",
      "status": "Y"
    },
    "type": "Feature",
    "label": "\u5f90\u6c9f",
    "id": "88",
    "geometry": {
      "type": "Point",
      "coordinates": [
        112.509,
        37.55718
      ]
    }
  },
  {
    "properties": {
      "gazetteer_uri": "",
      "collection": "courier",
      "comment": "",
      "gazetteer_label": "LINFENYI Shanxi (\u4e34\u6c7e\u9a7f)",
      "source": "MDYZK",
      "status": "Y"
    },
    "type": "Feature",
    "label": "\u4e34\u6c7e\u9a7f",
    "id": "89",
    "geometry": {
      "type": "Point",
      "coordinates": [
        112.47893,
        37.72759
      ]
    }
  },
  {
    "properties": {
      "gazetteer_uri": "",
      "collection": "courier",
      "comment": "",
      "gazetteer_label": "LINCHENGYI Hunan (\u4e34\u4e1e\u9a7f)",
      "source": "MDYZK",
      "status": "N"
    },
    "type": "Feature",
    "label": "\u4e34\u4e1e\u9a7f",
    "id": "90",
    "geometry": {
      "type": "Point",
      "coordinates": [
        112.59704,
        26.90162
      ]
    }
  },
  {
    "properties": {
      "gazetteer_uri": "",
      "collection": "courier",
      "comment": "",
      "gazetteer_label": "MINGQIAN Shanxi (\u9e23\u8c26\u9a7f)",
      "source": "MDYZK",
      "status": "Y"
    },
    "type": "Feature",
    "label": "\u9e23\u8c26\u9a7f",
    "id": "91",
    "geometry": {
      "type": "Point",
      "coordinates": [
        112.6978,
        37.76786
      ]
    }
  },
  {
    "properties": {
      "gazetteer_uri": "",
      "collection": "courier",
      "comment": "",
      "gazetteer_label": "BOWANG Henan (\u535a\u671b\u9a7f)",
      "source": "MDYZK",
      "status": "Y"
    },
    "type": "Feature",
    "label": "\u535a\u671b\u9a7f",
    "id": "92",
    "geometry": {
      "type": "Point",
      "coordinates": [
        112.7118,
        33.16429
      ]
    }
  },
  {
    "properties": {
      "gazetteer_uri": "",
      "collection": "courier",
      "comment": "",
      "gazetteer_label": "YUANPING Shanxi (\u539f\u5e73\u9a7f)",
      "source": "MDYZK",
      "status": "Y"
    },
    "type": "Feature",
    "label": "\u539f\u5e73\u9a7f",
    "id": "93",
    "geometry": {
      "type": "Point",
      "coordinates": [
        112.7121,
        38.7266
      ]
    }
  },
  {
    "properties": {
      "gazetteer_uri": "",
      "collection": "courier",
      "comment": "",
      "gazetteer_label": "HUANGBAO Hunan (\u9ec4\u5821\u9a7f)",
      "source": "MDYZK",
      "status": "Y"
    },
    "type": "Feature",
    "label": "\u9ec4\u5821\u9a7f",
    "id": "94",
    "geometry": {
      "type": "Point",
      "coordinates": [
        112.85242,
        27.24565
      ]
    }
  },
  {
    "properties": {
      "gazetteer_uri": "",
      "collection": "courier",
      "comment": "",
      "gazetteer_label": "SHENGZHUYI Hunan (\u7b19\u7af9\u9a7f)",
      "source": "MDYZK",
      "status": "N"
    },
    "type": "Feature",
    "label": "\u7b19\u7af9\u9a7f",
    "id": "95",
    "geometry": {
      "type": "Point",
      "coordinates": [
        112.88029,
        28.67621
      ]
    }
  },
  {
    "properties": {
      "gazetteer_uri": "",
      "collection": "courier",
      "comment": "",
      "gazetteer_label": "XI'NAN Guangdong (\u897f\u5357\u9a7f)",
      "source": "MDYZK",
      "status": "Y"
    },
    "type": "Feature",
    "label": "\u897f\u5357\u9a7f",
    "id": "96",
    "geometry": {
      "type": "Point",
      "coordinates": [
        112.88607,
        23.16587
      ]
    }
  },
  {
    "properties": {
      "gazetteer_uri": "",
      "collection": "courier",
      "comment": "",
      "gazetteer_label": "XIANGTANYI Hunan (\u6e58\u6f6d\u9a7f)",
      "source": "MDYZK",
      "status": "Y"
    },
    "type": "Feature",
    "label": "\u6e58\u6f6d\u9a7f",
    "id": "97",
    "geometry": {
      "type": "Point",
      "coordinates": [
        112.91126,
        27.8727
      ]
    }
  },
  {
    "properties": {
      "gazetteer_uri": "",
      "collection": "courier",
      "comment": "",
      "gazetteer_label": "YANMEN Shanxi (\u96c1\u95e8\u9a7f)",
      "source": "MDYZK",
      "status": "Y"
    },
    "type": "Feature",
    "label": "\u96c1\u95e8\u9a7f",
    "id": "98",
    "geometry": {
      "type": "Point",
      "coordinates": [
        112.94904,
        39.06039
      ]
    }
  },
  {
    "properties": {
      "gazetteer_uri": "",
      "collection": "courier",
      "comment": "",
      "gazetteer_label": "LINXIANGYI Hunan (\u4e34\u6e58\u9a7f)",
      "source": "MDYZK",
      "status": "N"
    },
    "type": "Feature",
    "label": "\u4e34\u6e58\u9a7f",
    "id": "99",
    "geometry": {
      "type": "Point",
      "coordinates": [
        112.97813,
        28.1982
      ]
    }
  },
  {
    "properties": {
      "gazetteer_uri": "",
      "collection": "courier",
      "comment": "",
      "gazetteer_label": "ZHEYANG Henan (\u8d6d\u9633\u9a7f)",
      "source": "MDYZK",
      "status": "Y"
    },
    "type": "Feature",
    "label": "\u8d6d\u9633\u9a7f",
    "id": "100",
    "geometry": {
      "type": "Point",
      "coordinates": [
        112.99251,
        33.26008
      ]
    }
  },
  {
    "properties": {
      "gazetteer_uri": "",
      "collection": "courier",
      "comment": "",
      "gazetteer_label": "ANYUAN Guangdong (\u5b89\u8fdc\u9a7f)",
      "source": "MDYZK",
      "status": "Y"
    },
    "type": "Feature",
    "label": "\u5b89\u8fdc\u9a7f",
    "id": "101",
    "geometry": {
      "type": "Point",
      "coordinates": [
        113.02213,
        23.72073
      ]
    }
  },
  {
    "properties": {
      "gazetteer_uri": "",
      "collection": "courier",
      "comment": "",
      "gazetteer_label": "YUEYANG Hunan (\u5cb3\u9633\u9a7f)",
      "source": "MDYZK",
      "status": "Y"
    },
    "type": "Feature",
    "label": "\u5cb3\u9633\u9a7f",
    "id": "102",
    "geometry": {
      "type": "Point",
      "coordinates": [
        113.09766,
        29.37126
      ]
    }
  },
  {
    "properties": {
      "gazetteer_uri": "",
      "collection": "courier",
      "comment": "",
      "gazetteer_label": "TAI'AN Shanxi (\u592a\u5b89\u9a7f)",
      "source": "MDYZK",
      "status": "Y"
    },
    "type": "Feature",
    "label": "\u592a\u5b89\u9a7f",
    "id": "103",
    "geometry": {
      "type": "Point",
      "coordinates": [
        113.16871,
        37.88678
      ]
    }
  },
  {
    "properties": {
      "gazetteer_uri": "",
      "collection": "courier",
      "comment": "",
      "gazetteer_label": "WUYANG Guangdong (\u4e94\u7f8a\u9a7f)",
      "source": "MDYZK",
      "status": "Y"
    },
    "type": "Feature",
    "label": "\u4e94\u7f8a\u9a7f",
    "id": "104",
    "geometry": {
      "type": "Point",
      "coordinates": [
        113.25607,
        23.13462
      ]
    }
  },
  {
    "properties": {
      "gazetteer_uri": "",
      "collection": "courier",
      "comment": "",
      "gazetteer_label": "FANZHI Shanxi (\u7e41\u5cd9)",
      "source": "MDYZK",
      "status": "Y"
    },
    "type": "Feature",
    "label": "\u7e41\u5cd9",
    "id": "105",
    "geometry": {
      "type": "Point",
      "coordinates": [
        113.272,
        39.19
      ]
    }
  },
  {
    "properties": {
      "gazetteer_uri": "",
      "collection": "courier",
      "comment": "",
      "gazetteer_label": "LINXIANG Hunan (\u4e34\u6e58)",
      "source": "MDYZK",
      "status": "Y"
    },
    "type": "Feature",
    "label": "\u4e34\u6e58",
    "id": "106",
    "geometry": {
      "type": "Point",
      "coordinates": [
        113.29287,
        29.58814
      ]
    }
  },
  {
    "properties": {
      "gazetteer_uri": "",
      "collection": "courier",
      "comment": "",
      "gazetteer_label": "ZHISHUI Henan (\u6ecd\u6c34\u9a7f)",
      "source": "MDYZK",
      "status": "Y"
    },
    "type": "Feature",
    "label": "\u6ecd\u6c34\u9a7f",
    "id": "107",
    "geometry": {
      "type": "Point",
      "coordinates": [
        113.34553,
        33.6233
      ]
    }
  },
  {
    "properties": {
      "gazetteer_uri": "",
      "collection": "courier",
      "comment": "",
      "gazetteer_label": "GUANGWU Henan (\u5e7f\u6b66\u9a7f)",
      "source": "MDYZK",
      "status": "Y"
    },
    "type": "Feature",
    "label": "\u5e7f\u6b66\u9a7f",
    "id": "108",
    "geometry": {
      "type": "Point",
      "coordinates": [
        113.52824,
        34.98441
      ]
    }
  },
  {
    "properties": {
      "gazetteer_uri": "",
      "collection": "courier",
      "comment": "",
      "gazetteer_label": "YINGDE Guangdong (\u82f1\u5fb7)",
      "source": "MDYZK",
      "status": "Y"
    },
    "type": "Feature",
    "label": "\u82f1\u5fb7",
    "id": "109",
    "geometry": {
      "type": "Point",
      "coordinates": [
        113.40208,
        24.17294
      ]
    }
  },
  {
    "properties": {
      "gazetteer_uri": "",
      "collection": "courier",
      "comment": "",
      "gazetteer_label": "QINQUANYI Shanxi (\u82b9\u6cc9\u9a7f)",
      "source": "MDYZK",
      "status": "Y"
    },
    "type": "Feature",
    "label": "\u82b9\u6cc9\u9a7f",
    "id": "110",
    "geometry": {
      "type": "Point",
      "coordinates": [
        113.2743,
        37.8696
      ]
    }
  },
  {
    "properties": {
      "gazetteer_uri": "",
      "collection": "courier",
      "comment": "",
      "gazetteer_label": "QINGYING Henan (\u6e05\u9896\u9a7f)",
      "source": "MDYZK",
      "status": "Y"
    },
    "type": "Feature",
    "label": "\u6e05\u9896\u9a7f",
    "id": "111",
    "geometry": {
      "type": "Point",
      "coordinates": [
        113.46706,
        34.16249
      ]
    }
  },
  {
    "properties": {
      "gazetteer_uri": "",
      "collection": "courier",
      "comment": "",
      "gazetteer_label": "XINCHENG Henan (\u65b0\u57ce\u9a7f)",
      "source": "MDYZK",
      "status": "Y"
    },
    "type": "Feature",
    "label": "\u65b0\u57ce\u9a7f",
    "id": "112",
    "geometry": {
      "type": "Point",
      "coordinates": [
        113.47237,
        33.85369
      ]
    }
  },
  {
    "properties": {
      "gazetteer_uri": "",
      "collection": "courier",
      "comment": "",
      "gazetteer_label": "FURONG Guangdong (\u8299\u84c9\u9a7f)",
      "source": "MDYZK",
      "status": "Y"
    },
    "type": "Feature",
    "label": "\u8299\u84c9\u9a7f",
    "id": "113",
    "geometry": {
      "type": "Point",
      "coordinates": [
        113.60342,
        24.81021
      ]
    }
  },
  {
    "properties": {
      "gazetteer_uri": "",
      "collection": "courier",
      "comment": "",
      "gazetteer_label": "PINGTANYI Shanxi (\u5e73\u6f6d\u9a7f)",
      "source": "MDYZK",
      "status": "N"
    },
    "type": "Feature",
    "label": "\u5e73\u6f6d\u9a7f",
    "id": "114",
    "geometry": {
      "type": "Point",
      "coordinates": [
        113.62227,
        37.80204
      ]
    }
  },
  {
    "properties": {
      "gazetteer_uri": "",
      "collection": "courier",
      "comment": "",
      "gazetteer_label": "GUANCHENGYI Henan (\u7ba1\u57ce\u9a7f)",
      "source": "MDYZK",
      "status": "N"
    },
    "type": "Feature",
    "label": "\u7ba1\u57ce\u9a7f",
    "id": "115",
    "geometry": {
      "type": "Point",
      "coordinates": [
        113.64131,
        34.75808
      ]
    }
  },
  {
    "properties": {
      "gazetteer_uri": "",
      "collection": "courier",
      "comment": "",
      "gazetteer_label": "DE'ANFU Hubei (\u5fb7\u5b89\u5e9c)",
      "source": "MDYZK",
      "status": "N"
    },
    "type": "Feature",
    "label": "\u5fb7\u5b89\u5e9c",
    "id": "116",
    "geometry": {
      "type": "Point",
      "coordinates": [
        113.6869,
        31.25261
      ]
    }
  },
  {
    "properties": {
      "gazetteer_uri": "",
      "collection": "courier",
      "comment": "",
      "gazetteer_label": "BAIJING Shanxi (\u67cf\u4e95\u9a7f)",
      "source": "MDYZK",
      "status": "Y"
    },
    "type": "Feature",
    "label": "\u67cf\u4e95\u9a7f",
    "id": "117",
    "geometry": {
      "type": "Point",
      "coordinates": [
        113.805,
        37.81944
      ]
    }
  },
  {
    "properties": {
      "gazetteer_uri": "",
      "collection": "courier",
      "comment": "",
      "gazetteer_label": "GUODIAN Henan (\u90ed\u5e97\u9a7f)",
      "source": "MDYZK",
      "status": "Y"
    },
    "type": "Feature",
    "label": "\u90ed\u5e97\u9a7f",
    "id": "118",
    "geometry": {
      "type": "Point",
      "coordinates": [
        113.71909,
        34.39732
      ]
    }
  },
  {
    "properties": {
      "gazetteer_uri": "",
      "collection": "courier",
      "comment": "",
      "gazetteer_label": "YUNMENG Hubei (\u4e91\u68a6)",
      "source": "MDYZK",
      "status": "Y"
    },
    "type": "Feature",
    "label": "\u4e91\u68a6",
    "id": "119",
    "geometry": {
      "type": "Point",
      "coordinates": [
        113.7333,
        31.02003
      ]
    }
  },
  {
    "properties": {
      "gazetteer_uri": "",
      "collection": "courier",
      "comment": "",
      "gazetteer_label": "XINZHONG Henan (\u65b0\u4e2d\u9a7f)",
      "source": "MDYZK",
      "status": "Y"
    },
    "type": "Feature",
    "label": "\u65b0\u4e2d\u9a7f",
    "id": "120",
    "geometry": {
      "type": "Point",
      "coordinates": [
        113.86825,
        35.30994
      ]
    }
  },
  {
    "properties": {
      "gazetteer_uri": "",
      "collection": "courier",
      "comment": "",
      "gazetteer_label": "FENGSHANYI Hubei (\u51e4\u5c71\u9a7f)",
      "source": "MDYZK",
      "status": "N"
    },
    "type": "Feature",
    "label": "\u51e4\u5c71\u9a7f",
    "id": "121",
    "geometry": {
      "type": "Point",
      "coordinates": [
        113.87461,
        29.70835
      ]
    }
  },
  {
    "properties": {
      "gazetteer_uri": "",
      "collection": "courier",
      "comment": "",
      "gazetteer_label": "WANGJIAZHUANG Shanxi (\u738b\u5bb6\u5e84\u9a7f)",
      "source": "MDYZK",
      "status": "Y"
    },
    "type": "Feature",
    "label": "\u738b\u5bb6\u5e84\u9a7f",
    "id": "122",
    "geometry": {
      "type": "Point",
      "coordinates": [
        113.91641,
        39.43094
      ]
    }
  },
  {
    "properties": {
      "gazetteer_uri": "",
      "collection": "courier",
      "comment": "",
      "gazetteer_label": "LINYING Henan (\u4e34\u9896\u9a7f)",
      "source": "MDYZK",
      "status": "Y"
    },
    "type": "Feature",
    "label": "\u4e34\u9896\u9a7f",
    "id": "123",
    "geometry": {
      "type": "Point",
      "coordinates": [
        113.96064,
        33.80861
      ]
    }
  },
  {
    "properties": {
      "gazetteer_uri": "",
      "collection": "courier",
      "comment": "",
      "gazetteer_label": "YANCHENG Henan (\u90fe\u57ce\u9a7f)",
      "source": "MDYZK",
      "status": "Y"
    },
    "type": "Feature",
    "label": "\u90fe\u57ce\u9a7f",
    "id": "124",
    "geometry": {
      "type": "Point",
      "coordinates": [
        113.9657,
        33.58221
      ]
    }
  },
  {
    "properties": {
      "gazetteer_uri": "",
      "collection": "courier",
      "comment": "",
      "gazetteer_label": "XIPING Henan (\u897f\u5e73\u9a7f)",
      "source": "MDYZK",
      "status": "Y"
    },
    "type": "Feature",
    "label": "\u897f\u5e73\u9a7f",
    "id": "125",
    "geometry": {
      "type": "Point",
      "coordinates": [
        114.01553,
        33.38906
      ]
    }
  },
  {
    "properties": {
      "gazetteer_uri": "",
      "collection": "courier",
      "comment": "",
      "gazetteer_label": "XINGSHAN Hebei (\u9649\u5c71\u9a7f)",
      "source": "MDYZK",
      "status": "Y"
    },
    "type": "Feature",
    "label": "\u9649\u5c71\u9a7f",
    "id": "126",
    "geometry": {
      "type": "Point",
      "coordinates": [
        114.01778,
        38.00616
      ]
    }
  },
  {
    "properties": {
      "gazetteer_uri": "",
      "collection": "courier",
      "comment": "",
      "gazetteer_label": "WEIYUANYI Henan (\u536b\u6e90\u9a7f)",
      "source": "MDYZK",
      "status": "N"
    },
    "type": "Feature",
    "label": "\u536b\u6e90\u9a7f",
    "id": "127",
    "geometry": {
      "type": "Point",
      "coordinates": [
        114.07027,
        35.41039
      ]
    }
  },
  {
    "properties": {
      "gazetteer_uri": "",
      "collection": "courier",
      "comment": "",
      "gazetteer_label": "QIMEN Henan (\u6dc7\u95e8\u9a7f)",
      "source": "MDYZK",
      "status": "Y"
    },
    "type": "Feature",
    "label": "\u6dc7\u95e8\u9a7f",
    "id": "128",
    "geometry": {
      "type": "Point",
      "coordinates": [
        114.19437,
        35.60645
      ]
    }
  },
  {
    "properties": {
      "gazetteer_uri": "",
      "collection": "courier",
      "comment": "",
      "gazetteer_label": "LITINGYI Henan (\u5eea\u5ef7\u9a7f)",
      "source": "MDYZK",
      "status": "N"
    },
    "type": "Feature",
    "label": "\u5eea\u5ef7\u9a7f",
    "id": "129",
    "geometry": {
      "type": "Point",
      "coordinates": [
        114.19469,
        35.14276
      ]
    }
  },
  {
    "properties": {
      "gazetteer_uri": "",
      "collection": "courier",
      "comment": "",
      "gazetteer_label": "TAIBAI Shanxi (\u592a\u767d\u9a7f)",
      "source": "MDYZK",
      "status": "Y"
    },
    "type": "Feature",
    "label": "\u592a\u767d\u9a7f",
    "id": "130",
    "geometry": {
      "type": "Point",
      "coordinates": [
        114.22922,
        39.43774
      ]
    }
  },
  {
    "properties": {
      "gazetteer_uri": "",
      "collection": "courier",
      "comment": "",
      "gazetteer_label": "HANYANGFU Hubei (\u6c49\u9633\u5e9c)",
      "source": "MDYZK",
      "status": "Y"
    },
    "type": "Feature",
    "label": "\u6c49\u9633\u5e9c",
    "id": "131",
    "geometry": {
      "type": "Point",
      "coordinates": [
        114.26192,
        30.54437
      ]
    }
  },
  {
    "properties": {
      "gazetteer_uri": "",
      "collection": "courier",
      "comment": "",
      "gazetteer_label": "XIANNING Hubei (\u54b8\u5b81\u9a7f)",
      "source": "MDYZK",
      "status": "Y"
    },
    "type": "Feature",
    "label": "\u54b8\u5b81\u9a7f",
    "id": "132",
    "geometry": {
      "type": "Point",
      "coordinates": [
        114.27162,
        29.89248
      ]
    }
  },
  {
    "properties": {
      "gazetteer_uri": "",
      "collection": "courier",
      "comment": "",
      "gazetteer_label": "LINGJIANG Guangdong (\u51cc\u6c5f\u9a7f)",
      "source": "MDYZK",
      "status": "Y"
    },
    "type": "Feature",
    "label": "\u51cc\u6c5f\u9a7f",
    "id": "133",
    "geometry": {
      "type": "Point",
      "coordinates": [
        114.30209,
        25.11884
      ]
    }
  },
  {
    "properties": {
      "gazetteer_uri": "",
      "collection": "courier",
      "comment": "",
      "gazetteer_label": "ZHENNING Hebei (\u9547\u5b81\u9a7f)",
      "source": "MDYZK",
      "status": "Y"
    },
    "type": "Feature",
    "label": "\u9547\u5b81\u9a7f",
    "id": "134",
    "geometry": {
      "type": "Point",
      "coordinates": [
        114.30772,
        38.08311
      ]
    }
  },
  {
    "properties": {
      "gazetteer_uri": "",
      "collection": "courier",
      "comment": "",
      "gazetteer_label": "WUCHANGFU Hubei (\u6b66\u660c\u5e9c)",
      "source": "MDYZK",
      "status": "N"
    },
    "type": "Feature",
    "label": "\u6b66\u660c\u5e9c",
    "id": "135",
    "geometry": {
      "type": "Point",
      "coordinates": [
        114.31919,
        30.54139
      ]
    }
  },
  {
    "properties": {
      "gazetteer_uri": "",
      "collection": "courier",
      "comment": "",
      "gazetteer_label": "DALIANGYI Henan (\u5927\u6881\u9a7f)",
      "source": "MDYZK",
      "status": "N"
    },
    "type": "Feature",
    "label": "\u5927\u6881\u9a7f",
    "id": "136",
    "geometry": {
      "type": "Point",
      "coordinates": [
        114.34333,
        34.78548
      ]
    }
  },
  {
    "properties": {
      "gazetteer_uri": "",
      "collection": "courier",
      "comment": "",
      "gazetteer_label": "YECHENG Henan (\u90ba\u57ce\u9a7f)",
      "source": "MDYZK",
      "status": "Y"
    },
    "type": "Feature",
    "label": "\u90ba\u57ce\u9a7f",
    "id": "137",
    "geometry": {
      "type": "Point",
      "coordinates": [
        114.3455,
        36.09834
      ]
    }
  },
  {
    "properties": {
      "gazetteer_uri": "",
      "collection": "courier",
      "comment": "",
      "gazetteer_label": "HENGPUYI Jiangxi (\u6a2a\u6d66\u9a7f)",
      "source": "MDYZK",
      "status": "N"
    },
    "type": "Feature",
    "label": "\u6a2a\u6d66\u9a7f",
    "id": "138",
    "geometry": {
      "type": "Point",
      "coordinates": [
        114.35057,
        25.39995
      ]
    }
  },
  {
    "properties": {
      "gazetteer_uri": "",
      "collection": "courier",
      "comment": "",
      "gazetteer_label": "YIGOU Henan (\u5b9c\u6c9f)",
      "source": "MDYZK",
      "status": "Y"
    },
    "type": "Feature",
    "label": "\u5b9c\u6c9f",
    "id": "139",
    "geometry": {
      "type": "Point",
      "coordinates": [
        114.35269,
        35.92552
      ]
    }
  },
  {
    "properties": {
      "gazetteer_uri": "",
      "collection": "courier",
      "comment": "",
      "gazetteer_label": "CIZHOU Hebei (\u78c1\u5dde)",
      "source": "PA_1903",
      "status": "P"
    },
    "type": "Feature",
    "label": "\u78c1\u5dde",
    "id": "140",
    "geometry": {
      "type": "Point",
      "coordinates": [
        114.37424,
        36.35904
      ]
    }
  },
  {
    "properties": {
      "gazetteer_uri": "",
      "collection": "courier",
      "comment": "",
      "gazetteer_label": "CONGTAI Hebei (\u4ece\u53f0\u9a7f)",
      "source": "MDYZK",
      "status": "Y"
    },
    "type": "Feature",
    "label": "\u4ece\u53f0\u9a7f",
    "id": "141",
    "geometry": {
      "type": "Point",
      "coordinates": [
        114.47204,
        36.59348
      ]
    }
  },
  {
    "properties": {
      "gazetteer_uri": "",
      "collection": "courier",
      "comment": "",
      "gazetteer_label": "LONGGANG Hebei (\u9f99\u5188\u9a7f)",
      "source": "MDYZK",
      "status": "Y"
    },
    "type": "Feature",
    "label": "\u9f99\u5188\u9a7f",
    "id": "142",
    "geometry": {
      "type": "Point",
      "coordinates": [
        114.49426,
        37.06636
      ]
    }
  },
  {
    "properties": {
      "gazetteer_uri": "",
      "collection": "courier",
      "comment": "",
      "gazetteer_label": "ZHONGQIUYI Hebei (\u4e2d\u4e18\u9a7f)",
      "source": "MDYZK",
      "status": "N"
    },
    "type": "Feature",
    "label": "\u4e2d\u4e18\u9a7f",
    "id": "143",
    "geometry": {
      "type": "Point",
      "coordinates": [
        114.51186,
        37.295
      ]
    }
  },
  {
    "properties": {
      "gazetteer_uri": "",
      "collection": "courier",
      "comment": "",
      "gazetteer_label": "HENGSHANYI Hebei (\u6052\u5c71\u9a7f)",
      "source": "MDYZK",
      "status": "L"
    },
    "type": "Feature",
    "label": "\u6052\u5c71\u9a7f",
    "id": "144",
    "geometry": {
      "type": "Point",
      "coordinates": [
        114.56364,
        38.14011
      ]
    }
  },
  {
    "properties": {
      "gazetteer_uri": "",
      "collection": "courier",
      "comment": "",
      "gazetteer_label": "GUANCHENG Hebei (\u5173\u57ce\u9a7f)",
      "source": "MDYZK",
      "status": "N"
    },
    "type": "Feature",
    "label": "\u5173\u57ce\u9a7f",
    "id": "145",
    "geometry": {
      "type": "Point",
      "coordinates": [
        114.65269,
        37.88578
      ]
    }
  },
  {
    "properties": {
      "gazetteer_uri": "",
      "collection": "courier",
      "comment": "",
      "gazetteer_label": "HUAISHUI Hebei (\u69d0\u6c34\u9a7f)",
      "source": "MDYZK",
      "status": "Y"
    },
    "type": "Feature",
    "label": "\u69d0\u6c34\u9a7f",
    "id": "146",
    "geometry": {
      "type": "Point",
      "coordinates": [
        114.68058,
        37.49469
      ]
    }
  },
  {
    "properties": {
      "gazetteer_uri": "",
      "collection": "courier",
      "comment": "",
      "gazetteer_label": "GUANGCHANG Hebei (\u5e7f\u660c)",
      "source": "PA_1903",
      "status": "N"
    },
    "type": "Feature",
    "label": "\u5e7f\u660c",
    "id": "147",
    "geometry": {
      "type": "Point",
      "coordinates": [
        114.68877,
        39.35402
      ]
    }
  },
  {
    "properties": {
      "gazetteer_uri": "",
      "collection": "courier",
      "comment": "",
      "gazetteer_label": "NANYE Jiangxi (\u5357\u57dc\u9a7f)",
      "source": "MDYZK",
      "status": "Y"
    },
    "type": "Feature",
    "label": "\u5357\u57dc\u9a7f",
    "id": "148",
    "geometry": {
      "type": "Point",
      "coordinates": [
        114.74516,
        25.65857
      ]
    }
  },
  {
    "properties": {
      "gazetteer_uri": "",
      "collection": "courier",
      "comment": "",
      "gazetteer_label": "ZHAOZHOU Hebei (\u9117\u57ce\u9a7f)",
      "source": "MDYZK",
      "status": "N"
    },
    "type": "Feature",
    "label": "\u9117\u57ce\u9a7f",
    "id": "149",
    "geometry": {
      "type": "Point",
      "coordinates": [
        114.77218,
        37.75293
      ]
    }
  },
  {
    "properties": {
      "gazetteer_uri": "",
      "collection": "courier",
      "comment": "",
      "gazetteer_label": "WUYUN Jiangxi (\u4e94\u4e91\u9a7f)",
      "source": "MDYZK",
      "status": "Y"
    },
    "type": "Feature",
    "label": "\u4e94\u4e91\u9a7f",
    "id": "150",
    "geometry": {
      "type": "Point",
      "coordinates": [
        114.77968,
        26.46177
      ]
    }
  },
  {
    "properties": {
      "gazetteer_uri": "",
      "collection": "courier",
      "comment": "",
      "gazetteer_label": "XILE Hebei (\u897f\u4e50\u9a7f)",
      "source": "MDYZK",
      "status": "N"
    },
    "type": "Feature",
    "label": "\u897f\u4e50\u9a7f",
    "id": "151",
    "geometry": {
      "type": "Point",
      "coordinates": [
        114.78761,
        38.39504
      ]
    }
  },
  {
    "properties": {
      "gazetteer_uri": "",
      "collection": "courier",
      "comment": "",
      "gazetteer_label": "FUCHENG Hebei (\u4f0f\u57ce\u9a7f)",
      "source": "MDYZK",
      "status": "Y"
    },
    "type": "Feature",
    "label": "\u4f0f\u57ce\u9a7f",
    "id": "152",
    "geometry": {
      "type": "Point",
      "coordinates": [
        114.83418,
        38.03671
      ]
    }
  },
  {
    "properties": {
      "gazetteer_uri": "",
      "collection": "courier",
      "comment": "",
      "gazetteer_label": "BAIXIAYI Jiangxi (\u767d\u4e0b\u9a7f)",
      "source": "MDYZK",
      "status": "N"
    },
    "type": "Feature",
    "label": "\u767d\u4e0b\u9a7f",
    "id": "153",
    "geometry": {
      "type": "Point",
      "coordinates": [
        114.89487,
        26.7921
      ]
    }
  },
  {
    "properties": {
      "gazetteer_uri": "",
      "collection": "courier",
      "comment": "",
      "gazetteer_label": "SHUIXIYI Jiangxi (\u6c34\u897f\u9a7f)",
      "source": "MDYZK",
      "status": "Y"
    },
    "type": "Feature",
    "label": "\u6c34\u897f\u9a7f",
    "id": "154",
    "geometry": {
      "type": "Point",
      "coordinates": [
        114.93248,
        25.847
      ]
    }
  },
  {
    "properties": {
      "gazetteer_uri": "",
      "collection": "courier",
      "comment": "",
      "gazetteer_label": "LUOCHUAN Jiangxi (\u87ba\u5ddd\u9a7f)",
      "source": "MDYZK",
      "status": "Y"
    },
    "type": "Feature",
    "label": "\u87ba\u5ddd\u9a7f",
    "id": "155",
    "geometry": {
      "type": "Point",
      "coordinates": [
        114.97128,
        27.10324
      ]
    }
  },
  {
    "properties": {
      "gazetteer_uri": "",
      "collection": "courier",
      "comment": "",
      "gazetteer_label": "YONGDING Hebei (\u6c38\u5b9a\u9a7f)",
      "source": "MDYZK",
      "status": "Y"
    },
    "type": "Feature",
    "label": "\u6c38\u5b9a\u9a7f",
    "id": "156",
    "geometry": {
      "type": "Point",
      "coordinates": [
        114.97504,
        38.52006
      ]
    }
  },
  {
    "properties": {
      "gazetteer_uri": "",
      "collection": "courier",
      "comment": "",
      "gazetteer_label": "JISHUIYI Jiangxi (\u5409\u6c34)",
      "source": "MDYZK",
      "status": "Y"
    },
    "type": "Feature",
    "label": "\u5409\u6c34",
    "id": "157",
    "geometry": {
      "type": "Point",
      "coordinates": [
        115.13225,
        27.21437
      ]
    }
  },
  {
    "properties": {
      "gazetteer_uri": "",
      "collection": "courier",
      "comment": "",
      "gazetteer_label": "DICHENG Hebei (\u7fdf\u57ce\u9a7f)",
      "source": "MDYZK",
      "status": "Y"
    },
    "type": "Feature",
    "label": "\u7fdf\u57ce\u9a7f",
    "id": "158",
    "geometry": {
      "type": "Point",
      "coordinates": [
        115.13342,
        38.70527
      ]
    }
  },
  {
    "properties": {
      "gazetteer_uri": "",
      "collection": "courier",
      "comment": "",
      "gazetteer_label": "YUXIA Jiangxi (\u7389\u5ce1\u9a7f)",
      "source": "MDYZK",
      "status": "Y"
    },
    "type": "Feature",
    "label": "\u7389\u5ce1\u9a7f",
    "id": "159",
    "geometry": {
      "type": "Point",
      "coordinates": [
        115.14728,
        27.55369
      ]
    }
  },
  {
    "properties": {
      "gazetteer_uri": "",
      "collection": "courier",
      "comment": "",
      "gazetteer_label": "JINCHUAN Jiangxi (\u91d1\u5ddd\u9a7f)",
      "source": "MDYZK",
      "status": "Y"
    },
    "type": "Feature",
    "label": "\u91d1\u5ddd\u9a7f",
    "id": "160",
    "geometry": {
      "type": "Point",
      "coordinates": [
        115.3834,
        27.75988
      ]
    }
  },
  {
    "properties": {
      "gazetteer_uri": "",
      "collection": "courier",
      "comment": "",
      "gazetteer_label": "XIAOTAN Jiangxi (\u8427\u6ee9\u9a7f)",
      "source": "MDYZK",
      "status": "Y"
    },
    "type": "Feature",
    "label": "\u8427\u6ee9\u9a7f",
    "id": "161",
    "geometry": {
      "type": "Point",
      "coordinates": [
        115.39899,
        28.01557
      ]
    }
  },
  {
    "properties": {
      "gazetteer_uri": "",
      "collection": "courier",
      "comment": "",
      "gazetteer_label": "JINTAIYI Hebei (\u91d1\u53f0\u9a7f)",
      "source": "MDYZK",
      "status": "N"
    },
    "type": "Feature",
    "label": "\u91d1\u53f0\u9a7f",
    "id": "162",
    "geometry": {
      "type": "Point",
      "coordinates": [
        115.50209,
        38.8557
      ]
    }
  },
  {
    "properties": {
      "gazetteer_uri": "",
      "collection": "courier",
      "comment": "",
      "gazetteer_label": "BAIGOU Hebei (\u767d\u6c9f\u9a7f)",
      "source": "MDYZK",
      "status": "Y"
    },
    "type": "Feature",
    "label": "\u767d\u6c9f\u9a7f",
    "id": "163",
    "geometry": {
      "type": "Point",
      "coordinates": [
        115.65739,
        39.01944
      ]
    }
  },
  {
    "properties": {
      "gazetteer_uri": "",
      "collection": "courier",
      "comment": "",
      "gazetteer_label": "LAISHUI Hebei (\u6d9e\u6c34)",
      "source": "PA_1903",
      "status": "B"
    },
    "type": "Feature",
    "label": "\u6d9e\u6c34",
    "id": "164",
    "geometry": {
      "type": "Point",
      "coordinates": [
        115.7032,
        39.38615
      ]
    }
  },
  {
    "properties": {
      "gazetteer_uri": "",
      "collection": "courier",
      "comment": "",
      "gazetteer_label": "DE'AN Jiangxi (\u5fb7\u5b89)",
      "source": "MDYZK",
      "status": "Y"
    },
    "type": "Feature",
    "label": "\u5fb7\u5b89",
    "id": "165",
    "geometry": {
      "type": "Point",
      "coordinates": [
        115.74503,
        29.33056
      ]
    }
  },
  {
    "properties": {
      "gazetteer_uri": "",
      "collection": "courier",
      "comment": "",
      "gazetteer_label": "JIANCHANG Jiangxi (\u5efa\u660c)",
      "source": "MDYZK",
      "status": "N"
    },
    "type": "Feature",
    "label": "\u5efa\u660c",
    "id": "166",
    "geometry": {
      "type": "Point",
      "coordinates": [
        115.76182,
        29.08783
      ]
    }
  },
  {
    "properties": {
      "gazetteer_uri": "",
      "collection": "courier",
      "comment": "",
      "gazetteer_label": "XUANHUAYI Hebei (\u5ba3\u5316\u9a7f)",
      "source": "MDYZK",
      "status": "N"
    },
    "type": "Feature",
    "label": "\u5ba3\u5316\u9a7f",
    "id": "167",
    "geometry": {
      "type": "Point",
      "coordinates": [
        115.77419,
        39.26959
      ]
    }
  },
  {
    "properties": {
      "gazetteer_uri": "",
      "collection": "courier",
      "comment": "",
      "gazetteer_label": "NANPU Jiangxi (\u5357\u6d66\u9a7f)",
      "source": "MDYZK",
      "status": "Y"
    },
    "type": "Feature",
    "label": "\u5357\u6d66\u9a7f",
    "id": "168",
    "geometry": {
      "type": "Point",
      "coordinates": [
        115.89772,
        28.6749
      ]
    }
  },
  {
    "properties": {
      "gazetteer_uri": "",
      "collection": "courier",
      "comment": "",
      "gazetteer_label": "TINGQIAN Hubei (\u4ead\u524d\u9a7f)",
      "source": "MDYZK",
      "status": "Y"
    },
    "type": "Feature",
    "label": "\u4ead\u524d\u9a7f",
    "id": "169",
    "geometry": {
      "type": "Point",
      "coordinates": [
        115.93494,
        30.0792
      ]
    }
  },
  {
    "properties": {
      "gazetteer_uri": "",
      "collection": "courier",
      "comment": "",
      "gazetteer_label": "ZHULUYI Hebei (\u9010\u9e7f\u9a7f)",
      "source": "MDYZK",
      "status": "N"
    },
    "type": "Feature",
    "label": "\u9010\u9e7f\u9a7f",
    "id": "170",
    "geometry": {
      "type": "Point",
      "coordinates": [
        115.96815,
        39.48722
      ]
    }
  },
  {
    "properties": {
      "gazetteer_uri": "",
      "collection": "courier",
      "comment": "",
      "gazetteer_label": "XUNYANG Jiangxi (\u6d54\u9633\u9a7f)",
      "source": "MDYZK",
      "status": "Y"
    },
    "type": "Feature",
    "label": "\u6d54\u9633\u9a7f",
    "id": "171",
    "geometry": {
      "type": "Point",
      "coordinates": [
        115.98568,
        29.72236
      ]
    }
  },
  {
    "properties": {
      "gazetteer_uri": "",
      "collection": "courier",
      "comment": "",
      "gazetteer_label": "FENSHUI Hebei (\u6c7e\u6c34\u9a7f)",
      "source": "MDYZK",
      "status": "N"
    },
    "type": "Feature",
    "label": "\u6c7e\u6c34\u9a7f",
    "id": "172",
    "geometry": {
      "type": "Point",
      "coordinates": [
        115.98756,
        39.24595
      ]
    }
  },
  {
    "properties": {
      "gazetteer_uri": "",
      "collection": "courier",
      "comment": "",
      "gazetteer_label": "YINGHAIYI Hebei (\u701b\u6d77\u9a7f)",
      "source": "MDYZK",
      "status": "N"
    },
    "type": "Feature",
    "label": "\u701b\u6d77\u9a7f",
    "id": "173",
    "geometry": {
      "type": "Point",
      "coordinates": [
        116.08553,
        38.4357
      ]
    }
  },
  {
    "properties": {
      "gazetteer_uri": "",
      "collection": "courier",
      "comment": "",
      "gazetteer_label": "ZHENGCHEN Hebei (\u90d1\u57ce\u9a7f)",
      "source": "MDYZK",
      "status": "Y"
    },
    "type": "Feature",
    "label": "\u90d1\u57ce\u9a7f",
    "id": "174",
    "geometry": {
      "type": "Point",
      "coordinates": [
        116.09048,
        38.70767
      ]
    }
  },
  {
    "properties": {
      "gazetteer_uri": "",
      "collection": "courier",
      "comment": "",
      "gazetteer_label": "GUIYI Hebei (\u5f52\u4e49\u9a7f)",
      "source": "MDYZK",
      "status": "N"
    },
    "type": "Feature",
    "label": "\u5f52\u4e49\u9a7f",
    "id": "175",
    "geometry": {
      "type": "Point",
      "coordinates": [
        116.0927,
        38.97588
      ]
    }
  },
  {
    "properties": {
      "gazetteer_uri": "",
      "collection": "courier",
      "comment": "",
      "gazetteer_label": "FENGXIANGYI Anhui (\u67ab\u9999\u9a7f)",
      "source": "MDYZK",
      "status": "Y"
    },
    "type": "Feature",
    "label": "\u67ab\u9999\u9a7f",
    "id": "176",
    "geometry": {
      "type": "Point",
      "coordinates": [
        116.21667,
        30.36667
      ]
    }
  },
  {
    "properties": {
      "gazetteer_uri": "",
      "collection": "courier",
      "comment": "",
      "gazetteer_label": "LECHENG Hebei (\u4e50\u57ce\u9a7f)",
      "source": "MDYZK",
      "status": "Y"
    },
    "type": "Feature",
    "label": "\u4e50\u57ce\u9a7f",
    "id": "177",
    "geometry": {
      "type": "Point",
      "coordinates": [
        116.1149,
        38.1907
      ]
    }
  },
  {
    "properties": {
      "gazetteer_uri": "",
      "collection": "courier",
      "comment": "",
      "gazetteer_label": "LANGXIANG Beijing (\u56fa\u8282\u9a7f)",
      "source": "MDYZK",
      "status": "Y"
    },
    "type": "Feature",
    "label": "\u56fa\u8282\u9a7f",
    "id": "178",
    "geometry": {
      "type": "Point",
      "coordinates": [
        116.13558,
        39.74125
      ]
    }
  },
  {
    "properties": {
      "gazetteer_uri": "",
      "collection": "courier",
      "comment": "",
      "gazetteer_label": "FUCHENG Hebei (\u961c\u57ce\u9a7f)",
      "source": "MDYZK",
      "status": "Y"
    },
    "type": "Feature",
    "label": "\u961c\u57ce\u9a7f",
    "id": "179",
    "geometry": {
      "type": "Point",
      "coordinates": [
        116.14471,
        37.86818
      ]
    }
  },
  {
    "properties": {
      "gazetteer_uri": "",
      "collection": "courier",
      "comment": "",
      "gazetteer_label": "YUQIU Shandong (\u9c7c\u4e18\u9a7f)",
      "source": "MDYZK",
      "status": "Y"
    },
    "type": "Feature",
    "label": "\u9c7c\u4e18\u9a7f",
    "id": "180",
    "geometry": {
      "type": "Point",
      "coordinates": [
        116.231,
        36.86162
      ]
    }
  },
  {
    "properties": {
      "gazetteer_uri": "",
      "collection": "courier",
      "comment": "",
      "gazetteer_label": "CHISHAN Shandong (\u830c\u5c71\u9a7f)",
      "source": "MDYZK",
      "status": "Y"
    },
    "type": "Feature",
    "label": "\u830c\u5c71\u9a7f",
    "id": "181",
    "geometry": {
      "type": "Point",
      "coordinates": [
        116.25023,
        36.58662
      ]
    }
  },
  {
    "properties": {
      "gazetteer_uri": "",
      "collection": "courier",
      "comment": "",
      "gazetteer_label": "DONGGUANG Hebei (\u4e1c\u5149\u9a7f)",
      "source": "MDYZK",
      "status": "Y"
    },
    "type": "Feature",
    "label": "\u4e1c\u5149\u9a7f",
    "id": "182",
    "geometry": {
      "type": "Point",
      "coordinates": [
        116.2581,
        37.68801
      ]
    }
  },
  {
    "properties": {
      "gazetteer_uri": "",
      "collection": "courier",
      "comment": "",
      "gazetteer_label": "TAIHU Anhui (\u592a\u6e56)",
      "source": "MDYZK",
      "status": "Y"
    },
    "type": "Feature",
    "label": "\u592a\u6e56",
    "id": "183",
    "geometry": {
      "type": "Point",
      "coordinates": [
        116.26508,
        30.42006
      ]
    }
  },
  {
    "properties": {
      "gazetteer_uri": "",
      "collection": "courier",
      "comment": "",
      "gazetteer_label": "TAIPING Shandong (\u592a\u5e73\u9a7f)",
      "source": "MDYZK",
      "status": "Y"
    },
    "type": "Feature",
    "label": "\u592a\u5e73\u9a7f",
    "id": "184",
    "geometry": {
      "type": "Point",
      "coordinates": [
        116.27579,
        37.15112
      ]
    }
  },
  {
    "properties": {
      "gazetteer_uri": "",
      "collection": "courier",
      "comment": "",
      "gazetteer_label": "FUZHUANG Hebei (\u5bcc\u5e84\u9a7f)",
      "source": "MDYZK",
      "status": "Y"
    },
    "type": "Feature",
    "label": "\u5bcc\u5e84\u9a7f",
    "id": "185",
    "geometry": {
      "type": "Point",
      "coordinates": [
        116.28512,
        38.01704
      ]
    }
  },
  {
    "properties": {
      "gazetteer_uri": "",
      "collection": "courier",
      "comment": "",
      "gazetteer_label": "ANDE Shandong (\u5b89\u5fb7)",
      "source": "MDYZK",
      "status": "Y"
    },
    "type": "Feature",
    "label": "\u5b89\u5fb7",
    "id": "186",
    "geometry": {
      "type": "Point",
      "coordinates": [
        116.28741,
        37.45164
      ]
    }
  },
  {
    "properties": {
      "gazetteer_uri": "",
      "collection": "courier",
      "comment": "",
      "gazetteer_label": "DONGYUAN Shandong (\u4e1c\u539f\u9a7f)",
      "source": "MDYZK",
      "status": "Y"
    },
    "type": "Feature",
    "label": "\u4e1c\u539f\u9a7f",
    "id": "187",
    "geometry": {
      "type": "Point",
      "coordinates": [
        116.29917,
        35.91034
      ]
    }
  },
  {
    "properties": {
      "gazetteer_uri": "",
      "collection": "courier",
      "comment": "",
      "gazetteer_label": "HUITONGGUAN Beijing (\u4f1a\u540c\u9986)",
      "source": "MDYZK",
      "status": "N"
    },
    "type": "Feature",
    "label": "\u4f1a\u540c\u9986",
    "id": "188",
    "geometry": {
      "type": "Point",
      "coordinates": [
        116.368,
        39.93143
      ]
    }
  },
  {
    "properties": {
      "gazetteer_uri": "",
      "collection": "courier",
      "comment": "",
      "gazetteer_label": "TAOYUAN Shandong (\u6843\u6e90\u9a7f)",
      "source": "MDYZK",
      "status": "Y"
    },
    "type": "Feature",
    "label": "\u6843\u6e90\u9a7f",
    "id": "189",
    "geometry": {
      "type": "Point",
      "coordinates": [
        116.42907,
        37.15773
      ]
    }
  },
  {
    "properties": {
      "gazetteer_uri": "",
      "collection": "courier",
      "comment": "",
      "gazetteer_label": "XINQIAO Shandong (\u65b0\u6865\u9a7f)",
      "source": "MDYZK",
      "status": "Y"
    },
    "type": "Feature",
    "label": "\u65b0\u6865\u9a7f",
    "id": "190",
    "geometry": {
      "type": "Point",
      "coordinates": [
        116.48556,
        35.72985
      ]
    }
  },
  {
    "properties": {
      "gazetteer_uri": "",
      "collection": "courier",
      "comment": "",
      "gazetteer_label": "QINGKOU Anhui (\u9752\u53e3\u9a7f)",
      "source": "MDYZK",
      "status": "Y"
    },
    "type": "Feature",
    "label": "\u9752\u53e3\u9a7f",
    "id": "191",
    "geometry": {
      "type": "Point",
      "coordinates": [
        116.5672,
        30.63035
      ]
    }
  },
  {
    "properties": {
      "gazetteer_uri": "",
      "collection": "courier",
      "comment": "",
      "gazetteer_label": "LIUPU Shandong (\u5218\u666e\u9a7f)",
      "source": "MDYZK",
      "status": "Y"
    },
    "type": "Feature",
    "label": "\u5218\u666e\u9a7f",
    "id": "192",
    "geometry": {
      "type": "Point",
      "coordinates": [
        116.65239,
        36.94536
      ]
    }
  },
  {
    "properties": {
      "gazetteer_uri": "",
      "collection": "courier",
      "comment": "",
      "gazetteer_label": "LUHE Beijing (\u6f5e\u6cb3\u9a7f)",
      "source": "MDYZK",
      "status": "Y"
    },
    "type": "Feature",
    "label": "\u6f5e\u6cb3\u9a7f",
    "id": "193",
    "geometry": {
      "type": "Point",
      "coordinates": [
        116.65881,
        39.90592
      ]
    }
  },
  {
    "properties": {
      "gazetteer_uri": "",
      "collection": "courier",
      "comment": "",
      "gazetteer_label": "DONGBEIZHIYI Shandong (\u4e1c\u5317\u7f6e\u9a7f)",
      "source": "MDYZK",
      "status": "Y"
    },
    "type": "Feature",
    "label": "\u4e1c\u5317\u7f6e\u9a7f",
    "id": "194",
    "geometry": {
      "type": "Point",
      "coordinates": [
        116.72324,
        36.55283
      ]
    }
  },
  {
    "properties": {
      "gazetteer_uri": "",
      "collection": "courier",
      "comment": "",
      "gazetteer_label": "YANCHENG Shandong (\u5bb4\u57ce\u9a7f)",
      "source": "MDYZK",
      "status": "Y"
    },
    "type": "Feature",
    "label": "\u5bb4\u57ce\u9a7f",
    "id": "195",
    "geometry": {
      "type": "Point",
      "coordinates": [
        116.78063,
        36.70108
      ]
    }
  },
  {
    "properties": {
      "gazetteer_uri": "",
      "collection": "courier",
      "comment": "",
      "gazetteer_label": "CHANGPINGYI Shandong (\u660c\u5e73\u9a7f)",
      "source": "MDYZK",
      "status": "Y"
    },
    "type": "Feature",
    "label": "\u660c\u5e73\u9a7f",
    "id": "196",
    "geometry": {
      "type": "Point",
      "coordinates": [
        116.8237,
        35.5567
      ]
    }
  },
  {
    "properties": {
      "gazetteer_uri": "",
      "collection": "courier",
      "comment": "",
      "gazetteer_label": "SHUCHENG Anhui (\u8212\u57ce\u9a7f)",
      "source": "MDYZK",
      "status": "Y"
    },
    "type": "Feature",
    "label": "\u8212\u57ce\u9a7f",
    "id": "197",
    "geometry": {
      "type": "Point",
      "coordinates": [
        116.93854,
        31.45645
      ]
    }
  },
  {
    "properties": {
      "gazetteer_uri": "",
      "collection": "courier",
      "comment": "",
      "gazetteer_label": "LVTING Anhui (\u5415\u4ead\u9a7f)",
      "source": "MDYZK",
      "status": "Y"
    },
    "type": "Feature",
    "label": "\u5415\u4ead\u9a7f",
    "id": "198",
    "geometry": {
      "type": "Point",
      "coordinates": [
        116.93861,
        31.05228
      ]
    }
  },
  {
    "properties": {
      "gazetteer_uri": "",
      "collection": "courier",
      "comment": "",
      "gazetteer_label": "ZHU Shandong (\u90be\u57ce\u9a7f)",
      "source": "MDYZK",
      "status": "Y"
    },
    "type": "Feature",
    "label": "\u90be\u57ce\u9a7f",
    "id": "199",
    "geometry": {
      "type": "Point",
      "coordinates": [
        116.96844,
        35.40382
      ]
    }
  },
  {
    "properties": {
      "gazetteer_uri": "",
      "collection": "courier",
      "comment": "",
      "gazetteer_label": "SUIYANGYI Anhui (\u7762\u9633\u9a7f)",
      "source": "MDYZK",
      "status": "N"
    },
    "type": "Feature",
    "label": "\u7762\u9633\u9a7f",
    "id": "200",
    "geometry": {
      "type": "Point",
      "coordinates": [
        116.9714,
        33.64237
      ]
    }
  },
  {
    "properties": {
      "gazetteer_uri": "",
      "collection": "courier",
      "comment": "",
      "gazetteer_label": "TANGCHENGYI Shandong (\u8c2d\u57ce\u9a7f)",
      "source": "MDYZK",
      "status": "N"
    },
    "type": "Feature",
    "label": "\u8c2d\u57ce\u9a7f",
    "id": "201",
    "geometry": {
      "type": "Point",
      "coordinates": [
        117.00149,
        36.65013
      ]
    }
  },
  {
    "properties": {
      "gazetteer_uri": "",
      "collection": "courier",
      "comment": "",
      "gazetteer_label": "SANHE Hebei (\u4e09\u6cb3\u9a7f)",
      "source": "MDYZK",
      "status": "Y"
    },
    "type": "Feature",
    "label": "\u4e09\u6cb3\u9a7f",
    "id": "202",
    "geometry": {
      "type": "Point",
      "coordinates": [
        117.07612,
        39.98279
      ]
    }
  },
  {
    "properties": {
      "gazetteer_uri": "",
      "collection": "courier",
      "comment": "",
      "gazetteer_label": "TENGYANG Shandong (\u6ed5\u9633\u9a7f)",
      "source": "MDYZK",
      "status": "Y"
    },
    "type": "Feature",
    "label": "\u6ed5\u9633\u9a7f",
    "id": "203",
    "geometry": {
      "type": "Point",
      "coordinates": [
        117.15816,
        35.08609
      ]
    }
  },
  {
    "properties": {
      "gazetteer_uri": "",
      "collection": "courier",
      "comment": "",
      "gazetteer_label": "LIGUOJIAN Jiangsu (\u5229\u56fd\u76d1\u9a7f)",
      "source": "MDYZK",
      "status": "N"
    },
    "type": "Feature",
    "label": "\u5229\u56fd\u76d1\u9a7f",
    "id": "204",
    "geometry": {
      "type": "Point",
      "coordinates": [
        117.18768,
        34.26963
      ]
    }
  },
  {
    "properties": {
      "gazetteer_uri": "",
      "collection": "courier",
      "comment": "",
      "gazetteer_label": "JINDOUYI Anhui (\u91d1\u6597\u9a7f)",
      "source": "MDYZK",
      "status": "Y"
    },
    "type": "Feature",
    "label": "\u91d1\u6597\u9a7f",
    "id": "205",
    "geometry": {
      "type": "Point",
      "coordinates": [
        117.27646,
        31.86446
      ]
    }
  },
  {
    "properties": {
      "gazetteer_uri": "",
      "collection": "courier",
      "comment": "",
      "gazetteer_label": "YUYANG Tianjin (\u6e14\u9633\u9a7f)",
      "source": "MDYZK",
      "status": "Y"
    },
    "type": "Feature",
    "label": "\u6e14\u9633\u9a7f",
    "id": "206",
    "geometry": {
      "type": "Point",
      "coordinates": [
        117.40182,
        40.04387
      ]
    }
  },
  {
    "properties": {
      "gazetteer_uri": "",
      "collection": "courier",
      "comment": "",
      "gazetteer_label": "WANGZHUAN Anhui (\u738b\u5e84\u9a7f)",
      "source": "MDYZK",
      "status": "Y"
    },
    "type": "Feature",
    "label": "\u738b\u5e84\u9a7f",
    "id": "207",
    "geometry": {
      "type": "Point",
      "coordinates": [
        117.4586,
        33.09573
      ]
    }
  },
  {
    "properties": {
      "gazetteer_uri": "",
      "collection": "courier",
      "comment": "",
      "gazetteer_label": "GUZHENYI Anhui (\u56fa\u9547\u9a7f)",
      "source": "MDYZK",
      "status": "Y"
    },
    "type": "Feature",
    "label": "\u56fa\u9547\u9a7f",
    "id": "208",
    "geometry": {
      "type": "Point",
      "coordinates": [
        117.31171,
        33.31458
      ]
    }
  },
  {
    "properties": {
      "gazetteer_uri": "",
      "collection": "courier",
      "comment": "",
      "gazetteer_label": "HONGXIN Anhui (\u7ea2\u5fc3\u9a7f)",
      "source": "MDYZK",
      "status": "Y"
    },
    "type": "Feature",
    "label": "\u7ea2\u5fc3\u9a7f",
    "id": "209",
    "geometry": {
      "type": "Point",
      "coordinates": [
        117.64,
        32.9
      ]
    }
  },
  {
    "properties": {
      "gazetteer_uri": "",
      "collection": "courier",
      "comment": "",
      "gazetteer_label": "DINGYUAN Anhui (\u5b9a\u8fdc)",
      "source": "MDYZK",
      "status": "Y"
    },
    "type": "Feature",
    "label": "\u5b9a\u8fdc",
    "id": "210",
    "geometry": {
      "type": "Point",
      "coordinates": [
        117.67569,
        32.53025
      ]
    }
  },
  {
    "properties": {
      "gazetteer_uri": "",
      "collection": "courier",
      "comment": "",
      "gazetteer_label": "YANGFAN Hebei (\u9633\u6a0a\u9a7f)",
      "source": "MDYZK",
      "status": "Y"
    },
    "type": "Feature",
    "label": "\u9633\u6a0a\u9a7f",
    "id": "211",
    "geometry": {
      "type": "Point",
      "coordinates": [
        117.75478,
        39.88367
      ]
    }
  },
  {
    "properties": {
      "gazetteer_uri": "",
      "collection": "courier",
      "comment": "",
      "gazetteer_label": "CHIHE Anhui (\u6c60\u6cb3\u9a7f)",
      "source": "MDYZK",
      "status": "Y"
    },
    "type": "Feature",
    "label": "\u6c60\u6cb3\u9a7f",
    "id": "212",
    "geometry": {
      "type": "Point",
      "coordinates": [
        117.9405,
        32.51547
      ]
    }
  },
  {
    "properties": {
      "gazetteer_uri": "",
      "collection": "courier",
      "comment": "",
      "gazetteer_label": "JIANXI Fujian (\u5efa\u6eaa\u9a7f)",
      "source": "MDYZK",
      "status": "Y"
    },
    "type": "Feature",
    "label": "\u5efa\u6eaa\u9a7f",
    "id": "213",
    "geometry": {
      "type": "Point",
      "coordinates": [
        118.10537,
        27.33988
      ]
    }
  },
  {
    "properties": {
      "gazetteer_uri": "",
      "collection": "courier",
      "comment": "",
      "gazetteer_label": "YIFENG Hebei (\u4e49\u4e30\u9a7f)",
      "source": "MDYZK",
      "status": "Y"
    },
    "type": "Feature",
    "label": "\u4e49\u4e30\u9a7f",
    "id": "214",
    "geometry": {
      "type": "Point",
      "coordinates": [
        118.1349,
        39.8276
      ]
    }
  },
  {
    "properties": {
      "gazetteer_uri": "",
      "collection": "courier",
      "comment": "",
      "gazetteer_label": "JIANPUYI Fujian (\u5251\u6d66\u9a7f)",
      "source": "MDYZK",
      "status": "Y"
    },
    "type": "Feature",
    "label": "\u5251\u6d66\u9a7f",
    "id": "215",
    "geometry": {
      "type": "Point",
      "coordinates": [
        118.16918,
        26.64217
      ]
    }
  },
  {
    "properties": {
      "gazetteer_uri": "",
      "collection": "courier",
      "comment": "",
      "gazetteer_label": "DALIUSHU Anhui (\u5927\u67f3\u6811\u9a7f)",
      "source": "MDYZK",
      "status": "N"
    },
    "type": "Feature",
    "label": "\u5927\u67f3\u6811\u9a7f",
    "id": "217",
    "geometry": {
      "type": "Point",
      "coordinates": [
        118.30416,
        32.31699
      ]
    }
  },
  {
    "properties": {
      "gazetteer_uri": "",
      "collection": "courier",
      "comment": "",
      "gazetteer_label": "CHENGXIYI Fujian (\u57ce\u897f\u9a7f)",
      "source": "MDYZK",
      "status": "N"
    },
    "type": "Feature",
    "label": "\u57ce\u897f\u9a7f",
    "id": "218",
    "geometry": {
      "type": "Point",
      "coordinates": [
        118.32378,
        27.03886
      ]
    }
  },
  {
    "properties": {
      "gazetteer_uri": "",
      "collection": "courier",
      "comment": "",
      "gazetteer_label": "JIANGDONGYI Jiangsu (\u6c5f\u4e1c\u9a7f)",
      "source": "MDYZK",
      "status": "L"
    },
    "type": "Feature",
    "label": "\u6c5f\u4e1c\u9a7f",
    "id": "220",
    "geometry": {
      "type": "Point",
      "coordinates": [
        118.6176,
        32.06487
      ]
    }
  },
  {
    "properties": {
      "gazetteer_uri": "",
      "collection": "courier",
      "comment": "",
      "gazetteer_label": "HUANGTIAN Fujian (\u9ec4\u7530\u9a7f)",
      "source": "MDYZK",
      "status": "Y"
    },
    "type": "Feature",
    "label": "\u9ec4\u7530\u9a7f",
    "id": "222",
    "geometry": {
      "type": "Point",
      "coordinates": [
        118.6751,
        26.42891
      ]
    }
  },
  {
    "properties": {
      "gazetteer_uri": "",
      "collection": "courier",
      "comment": "",
      "gazetteer_label": "QIJIALINGYI Hebei (\u4e03\u5bb6\u5cad\u9a7f)",
      "source": "MDYZK",
      "status": "Y"
    },
    "type": "Feature",
    "label": "\u4e03\u5bb6\u5cad\u9a7f",
    "id": "223",
    "geometry": {
      "type": "Point",
      "coordinates": [
        118.46919,
        39.8664
      ]
    }
  },
  {
    "properties": {
      "gazetteer_uri": "",
      "collection": "courier",
      "comment": "",
      "gazetteer_label": "JIANGNINGYI Jiangsu (\u6c5f\u5b81\u9a7f)",
      "source": "MDYZK",
      "status": "N"
    },
    "type": "Feature",
    "label": "\u6c5f\u5b81\u9a7f",
    "id": "224",
    "geometry": {
      "type": "Point",
      "coordinates": [
        118.76899,
        32.05256
      ]
    }
  },
  {
    "properties": {
      "gazetteer_uri": "",
      "collection": "courier",
      "comment": "",
      "gazetteer_label": "LUANHE Hebei (\u6ee6\u6cb3\u9a7f)",
      "source": "MDYZK",
      "status": "Y"
    },
    "type": "Feature",
    "label": "\u6ee6\u6cb3\u9a7f",
    "id": "225",
    "geometry": {
      "type": "Point",
      "coordinates": [
        118.862,
        39.877
      ]
    }
  },
  {
    "properties": {
      "gazetteer_uri": "",
      "collection": "courier",
      "comment": "",
      "gazetteer_label": "SHANGHANG Zhejiang (\u4e0a\u822a\u9a7f)",
      "source": "MDYZK",
      "status": "Y"
    },
    "type": "Feature",
    "label": "\u4e0a\u822a\u9a7f",
    "id": "226",
    "geometry": {
      "type": "Point",
      "coordinates": [
        118.86765,
        28.95682
      ]
    }
  },
  {
    "properties": {
      "gazetteer_uri": "",
      "collection": "courier",
      "comment": "",
      "gazetteer_label": "BAISHA Fujian (\u767d\u6c99\u9a7f)",
      "source": "MDYZK",
      "status": "Y"
    },
    "type": "Feature",
    "label": "\u767d\u6c99\u9a7f",
    "id": "228",
    "geometry": {
      "type": "Point",
      "coordinates": [
        119.0703,
        26.21404
      ]
    }
  },
  {
    "properties": {
      "gazetteer_uri": "",
      "collection": "courier",
      "comment": "",
      "gazetteer_label": "TINGBU Zhejiang (\u4ead\u6b65\u9a7f)",
      "source": "MDYZK",
      "status": "Y"
    },
    "type": "Feature",
    "label": "\u4ead\u6b65\u9a7f",
    "id": "230",
    "geometry": {
      "type": "Point",
      "coordinates": [
        119.17238,
        29.03479
      ]
    }
  },
  {
    "properties": {
      "gazetteer_uri": "",
      "collection": "courier",
      "comment": "",
      "gazetteer_label": "LUFENGKOU Hebei (\u82a6\u5cf0\u53e3\u9a7f)",
      "source": "MDYZK",
      "status": "N"
    },
    "type": "Feature",
    "label": "\u82a6\u5cf0\u53e3\u9a7f",
    "id": "231",
    "geometry": {
      "type": "Point",
      "coordinates": [
        119.23016,
        39.88467
      ]
    }
  },
  {
    "properties": {
      "gazetteer_uri": "",
      "collection": "courier",
      "comment": "",
      "gazetteer_label": "SANSHAN Fujian (\u4e09\u5c71\u9a7f)",
      "source": "MDYZK",
      "status": "Y"
    },
    "type": "Feature",
    "label": "\u4e09\u5c71\u9a7f",
    "id": "233",
    "geometry": {
      "type": "Point",
      "coordinates": [
        119.32158,
        26.07395
      ]
    }
  },
  {
    "properties": {
      "gazetteer_uri": "",
      "collection": "courier",
      "comment": "",
      "gazetteer_label": "YANGZHOU Jiangsu (\u626c\u5dde\u5e9c)",
      "source": "MDYZK",
      "status": "Y"
    },
    "type": "Feature",
    "label": "\u626c\u5dde\u5e9c",
    "id": "234",
    "geometry": {
      "type": "Point",
      "coordinates": [
        119.43719,
        32.39127
      ]
    }
  },
  {
    "properties": {
      "gazetteer_uri": "",
      "collection": "courier",
      "comment": "",
      "gazetteer_label": "JINGKOU Jiangsu (\u4eac\u53e3\u9a7f)",
      "source": "MDYZK",
      "status": "Y"
    },
    "type": "Feature",
    "label": "\u4eac\u53e3\u9a7f",
    "id": "236",
    "geometry": {
      "type": "Point",
      "coordinates": [
        119.44429,
        32.20649
      ]
    }
  },
  {
    "properties": {
      "gazetteer_uri": "",
      "collection": "courier",
      "comment": "",
      "gazetteer_label": "GUSHUI Zhejiang (\u6ff2\u6c34\u9a7f)",
      "source": "MDYZK",
      "status": "Y"
    },
    "type": "Feature",
    "label": "\u6ff2\u6c34\u9a7f",
    "id": "237",
    "geometry": {
      "type": "Point",
      "coordinates": [
        119.47885,
        29.20445
      ]
    }
  },
  {
    "properties": {
      "gazetteer_uri": "",
      "collection": "courier",
      "comment": "",
      "gazetteer_label": "FUCHUN Zhejiang (\u5bcc\u6625\u9a7f)",
      "source": "MDYZK",
      "status": "Y"
    },
    "type": "Feature",
    "label": "\u5bcc\u6625\u9a7f",
    "id": "238",
    "geometry": {
      "type": "Point",
      "coordinates": [
        119.49886,
        29.54448
      ]
    }
  },
  {
    "properties": {
      "gazetteer_uri": "",
      "collection": "courier",
      "comment": "",
      "gazetteer_label": "YUNYANG Jiangsu (\u4e91\u9633\u9a7f)",
      "source": "MDYZK",
      "status": "Y"
    },
    "type": "Feature",
    "label": "\u4e91\u9633\u9a7f",
    "id": "239",
    "geometry": {
      "type": "Point",
      "coordinates": [
        119.56985,
        31.9958
      ]
    }
  },
  {
    "properties": {
      "gazetteer_uri": "",
      "collection": "courier",
      "comment": "",
      "gazetteer_label": "TONGJIANG Zhejiang (\u6850\u6c5f\u9a7f)",
      "source": "MDYZK",
      "status": "Y"
    },
    "type": "Feature",
    "label": "\u6850\u6c5f\u9a7f",
    "id": "240",
    "geometry": {
      "type": "Point",
      "coordinates": [
        119.66494,
        29.80246
      ]
    }
  },
  {
    "properties": {
      "gazetteer_uri": "",
      "collection": "courier",
      "comment": "",
      "gazetteer_label": "HUIJIANG Zhejiang (\u4f1a\u6c5f\u9a7f)",
      "source": "MDYZK",
      "status": "Y"
    },
    "type": "Feature",
    "label": "\u4f1a\u6c5f\u9a7f",
    "id": "241",
    "geometry": {
      "type": "Point",
      "coordinates": [
        119.94775,
        30.05343
      ]
    }
  },
  {
    "properties": {
      "gazetteer_uri": "",
      "collection": "courier",
      "comment": "",
      "gazetteer_label": "PILING Jiangsu (\u6bd7\u9675\u9a7f)",
      "source": "MDYZK",
      "status": "Y"
    },
    "type": "Feature",
    "label": "\u6bd7\u9675\u9a7f",
    "id": "242",
    "geometry": {
      "type": "Point",
      "coordinates": [
        119.9523,
        31.78278
      ]
    }
  },
  {
    "properties": {
      "gazetteer_uri": "",
      "collection": "courier",
      "comment": "",
      "gazetteer_label": "WUSHAN Zhejiang (\u5434\u5c71\u9a7f)",
      "source": "MDYZK",
      "status": "Y"
    },
    "type": "Feature",
    "label": "\u5434\u5c71\u9a7f",
    "id": "243",
    "geometry": {
      "type": "Point",
      "coordinates": [
        119.9829,
        30.31535
      ]
    }
  },
  {
    "properties": {
      "gazetteer_uri": "",
      "collection": "courier",
      "comment": "",
      "gazetteer_label": "WULIN Zhejiang (\u6b66\u6797\u9a7f)",
      "source": "MDYZK",
      "status": "Y"
    },
    "type": "Feature",
    "label": "\u6b66\u6797\u9a7f",
    "id": "244",
    "geometry": {
      "type": "Point",
      "coordinates": [
        120.16862,
        30.29412
      ]
    }
  },
  {
    "properties": {
      "gazetteer_uri": "",
      "collection": "courier",
      "comment": "",
      "gazetteer_label": "XISHAN Jiangsu (\u9521\u5c71\u9a7f)",
      "source": "MDYZK",
      "status": "Y"
    },
    "type": "Feature",
    "label": "\u9521\u5c71\u9a7f",
    "id": "245",
    "geometry": {
      "type": "Point",
      "coordinates": [
        120.29767,
        31.57461
      ]
    }
  },
  {
    "properties": {
      "gazetteer_uri": "",
      "collection": "courier",
      "comment": "",
      "gazetteer_label": "ZAOLIN Zhejiang (\u7682\u6797\u9a7f)",
      "source": "MDYZK",
      "status": "N"
    },
    "type": "Feature",
    "label": "\u7682\u6797\u9a7f",
    "id": "246",
    "geometry": {
      "type": "Point",
      "coordinates": [
        120.41874,
        30.53045
      ]
    }
  },
  {
    "properties": {
      "gazetteer_uri": "",
      "collection": "courier",
      "comment": "",
      "gazetteer_label": "GUSUYI Jiangsu (\u59d1\u82cf\u9a7f)",
      "source": "MDYZK",
      "status": "Y"
    },
    "type": "Feature",
    "label": "\u59d1\u82cf\u9a7f",
    "id": "247",
    "geometry": {
      "type": "Point",
      "coordinates": [
        120.61862,
        31.31271
      ]
    }
  },
  {
    "properties": {
      "gazetteer_uri": "",
      "collection": "courier",
      "comment": "",
      "gazetteer_label": "PINGWANG Jiangsu (\u5e73\u671b\u9a7f)",
      "source": "MDYZK",
      "status": "Y"
    },
    "type": "Feature",
    "label": "\u5e73\u671b\u9a7f",
    "id": "248",
    "geometry": {
      "type": "Point",
      "coordinates": [
        120.6766,
        30.98778
      ]
    }
  },
  {
    "properties": {
      "gazetteer_uri": "",
      "collection": "courier",
      "comment": "",
      "gazetteer_label": "XISHUI Zhejiang (\u897f\u6c34\u9a7f)",
      "source": "MDYZK",
      "status": "Y"
    },
    "type": "Feature",
    "label": "\u897f\u6c34\u9a7f",
    "id": "249",
    "geometry": {
      "type": "Point",
      "coordinates": [
        120.7532,
        30.76747
      ]
    }
  },
  {
    "properties": {
      "gazetteer_uri": "",
      "collection": "courier",
      "comment": "",
      "gazetteer_label": "ZAICHENGYI Liaoning (\u5728\u57ce\u9a7f)",
      "source": "MDYZK",
      "status": "Y"
    },
    "type": "Feature",
    "label": "\u5728\u57ce\u9a7f",
    "id": "250",
    "geometry": {
      "type": "Point",
      "coordinates": [
        123.41988,
        41.78825
      ]
    }
  },
  {
    "properties": {
      "gazetteer_uri": "",
      "collection": "courier",
      "comment": "",
      "gazetteer_label": "BAISHUISI Yunnan (\u767d\u6c34\u53f8)",
      "source": "PA_1903",
      "status": "L"
    },
    "type": "Feature",
    "label": "\u767d\u6c34\u53f8",
    "id": "251",
    "geometry": {
      "type": "Point",
      "coordinates": [
        104.01198,
        25.65715
      ]
    }
  },
  {
    "properties": {
      "gazetteer_uri": "",
      "collection": "courier",
      "comment": "",
      "gazetteer_label": "HEKOU Yunnan (\u6cb3\u53e3)",
      "source": "PA_1903",
      "status": "B"
    },