{
  "attributes": {
    "contributors": "[Lex Berman (CGA, Harvard Univ)",
    "description": "The Late Ming Dynasty Courier Stations and Routes were compiled primarily from the \"Mingdai Yizhankao\" by YANG Zhengtai, supplemented for some areas with information derived from the 1908 Postal Atlas. The Courier Stations and Routes were developed for use in an online network analyst application, which calculates the shortest route between selected postal stations on the fly:    http://maps.cga.harvard.edu/chinapostoffice/",
    "timespan": "[1368,,,1644,Late Ming Dynasty]",
    "uri": "https://github.com/kgeographer/topotime/tree/master/data/source/courier/README_Ming_Courier_Routes_Stations_2014.txt",
    "places": "places_courier.csv",
    "title": "Ming Dynasty Courier Routes and Postal Stations",
    "pub_date": "2014"
  },
  "features": [
    {
      "geometry": {
        "coordinates": [
          102.71035,
          25.04591
        ],
        "type": "Point"
      },
      "type": "Feature",
      "label": "\u4e91\u5357\u5e9c",
      "id": "1",
      "properties": {
        "source": "PA_1903",
        "gazetteer_uri": "",
        "collection": "courier",
        "gazetteer_label": "YUNNANFU Yunnan (\u4e91\u5357\u5e9c)",
        "status": "L",
        "comment": ""
      }
    },
    {
      "geometry": {
        "coordinates": [
          103.06189,
          25.22011
        ],
        "type": "Point"
      },
      "type": "Feature",
      "label": "\u6768\u6797",
      "id": "2",
      "properties": {
        "source": "PA_1903",
        "gazetteer_uri": "",
        "collection": "courier",
        "gazetteer_label": "YANGLIN Yunnan (\u6768\u6797)",
        "status": "L",
        "comment": ""
      }
    },
    {
      "geometry": {
        "coordinates": [
          103.25372,
          25.5622
        ],
        "type": "Point"
      },
      "type": "Feature",
      "label": "\u5bfb\u7538",
      "id": "3",
      "properties": {
        "source": "PA_1903",
        "gazetteer_uri": "",
        "collection": "courier",
        "gazetteer_label": "XUNDIAN GUCHENG Yunnan (\u5bfb\u7538)",
        "status": "B",
        "comment": ""
      }
    },
    {
      "geometry": {
        "coordinates": [
          103.58021,
          25.42843
        ],
        "type": "Point"
      },
      "type": "Feature",
      "label": "\u9a6c\u9f99",
      "id": "4",
      "properties": {
        "source": "PA_1903",
        "gazetteer_uri": "",
        "collection": "courier",
        "gazetteer_label": "MALONG Yunnan (\u9a6c\u9f99)",
        "status": "B",
        "comment": ""
      }
    },
    {
      "geometry": {
        "coordinates": [
          103.79678,
          25.49584
        ],
        "type": "Point"
      },
      "type": "Feature",
      "label": "\u5357\u5b81\u53bf",
      "id": "5",
      "properties": {
        "source": "PA_1903",
        "gazetteer_uri": "",
        "collection": "courier",
        "gazetteer_label": "NANNING XIAN Yunnan (\u5357\u5b81\u53bf)",
        "status": "L",
        "comment": ""
      }
    },
    {
      "geometry": {
        "coordinates": [
          103.82211,
          25.60993
        ],
        "type": "Point"
      },
      "type": "Feature",
      "label": "\u6cbe\u76ca",
      "id": "6",
      "properties": {
        "source": "PA_1903",
        "gazetteer_uri": "",
        "collection": "courier",
        "gazetteer_label": "ZHANYI Yunnan (\u6cbe\u76ca)",
        "status": "B",
        "comment": ""
      }
    },
    {
      "geometry": {
        "coordinates": [
          103.84714,
          36.04703
        ],
        "type": "Point"
      },
      "type": "Feature",
      "label": "\u5170\u6cc9\u9a7f",
      "id": "7",
      "properties": {
        "source": "MDYZK",
        "gazetteer_uri": "",
        "collection": "courier",
        "gazetteer_label": "LANQUANYI Gansu (\u5170\u6cc9\u9a7f)",
        "status": "Y",
        "comment": ""
      }
    },
    {
      "geometry": {
        "coordinates": [
          104.078,
          30.65038
        ],
        "type": "Point"
      },
      "type": "Feature",
      "label": "\u9526\u5b98\u9a7f",
      "id": "8",
      "properties": {
        "source": "MDYZK",
        "gazetteer_uri": "",
        "collection": "courier",
        "gazetteer_label": "JINGUANYI Sichuan (\u9526\u5b98\u9a7f)",
        "status": "N",
        "comment": ""
      }
    },
    {
      "geometry": {
        "coordinates": [
          104.10787,
          35.84682
        ],
        "type": "Point"
      },
      "type": "Feature",
      "label": "\u6e05\u6c34\u9a7f",
      "id": "9",
      "properties": {
        "source": "MDYZK",
        "gazetteer_uri": "",
        "collection": "courier",
        "gazetteer_label": "QINGSHUI Gansu (\u6e05\u6c34\u9a7f)",
        "status": "Y",
        "comment": ""
      }
    },
    {
      "geometry": {
        "coordinates": [
          104.16055,
          30.83139
        ],
        "type": "Point"
      },
      "type": "Feature",
      "label": "\u65b0\u90fd\u9a7f",
      "id": "10",
      "properties": {
        "source": "MDYZK",
        "gazetteer_uri": "",
        "collection": "courier",
        "gazetteer_label": "XINDU Sichuan (\u65b0\u90fd\u9a7f)",
        "status": "Y",
        "comment": ""
      }
    },
    {
      "geometry": {
        "coordinates": [
          104.62031,
          35.57509
        ],
        "type": "Point"
      },
      "type": "Feature",
      "label": "\u5ef6\u5bff\u9a7f",
      "id": "12",
      "properties": {
        "source": "MDYZK",
        "gazetteer_uri": "",
        "collection": "courier",
        "gazetteer_label": "YANSHOUYI Gansu (\u5ef6\u5bff\u9a7f)",
        "status": "N",
        "comment": ""
      }
    },
    {
      "geometry": {
        "coordinates": [
          104.64989,
          25.79314
        ],
        "type": "Point"
      },
      "type": "Feature",
      "label": "\u666e\u5b89",
      "id": "13",
      "properties": {
        "source": "MDYZK",
        "gazetteer_uri": "",
        "collection": "courier",
        "gazetteer_label": "PU'AN Guizhou (\u666e\u5b89)",
        "status": "Y",
        "comment": ""
      }
    },
    {
      "geometry": {
        "coordinates": [
          104.7493,
          31.45901
        ],
        "type": "Point"
      },
      "type": "Feature",
      "label": "\u91d1\u5c71\u9a7f",
      "id": "14",
      "properties": {
        "source": "MDYZK",
        "gazetteer_uri": "",
        "collection": "courier",
        "gazetteer_label": "JINSHANYI Sichuan (\u91d1\u5c71\u9a7f)",
        "status": "Y",
        "comment": ""
      }
    },
    {
      "geometry": {
        "coordinates": [
          104.95208,
          25.78841
        ],
        "type": "Point"
      },
      "type": "Feature",
      "label": "\u65b0\u5174\u9a7f",
      "id": "15",
      "properties": {
        "source": "MDYZK",
        "gazetteer_uri": "",
        "collection": "courier",
        "gazetteer_label": "XINXING Guizhou (\u65b0\u5174\u9a7f)",
        "status": "Y",
        "comment": ""
      }
    },
    {
      "geometry": {
        "coordinates": [
          105.05614,
          35.6942
        ],
        "type": "Point"
      },
      "type": "Feature",
      "label": "\u4fdd\u5b81\u9a7f",
      "id": "16",
      "properties": {
        "source": "MDYZK",
        "gazetteer_uri": "",
        "collection": "courier",
        "gazetteer_label": "BAONINGYI Gansu (\u4fdd\u5b81\u9a7f)",
        "status": "N",
        "comment": ""
      }
    },
    {
      "geometry": {
        "coordinates": [
          105.21588,
          25.83347
        ],
        "type": "Point"
      },
      "type": "Feature",
      "label": "\u5c3e\u9152\u9a7f",
      "id": "17",
      "properties": {
        "source": "MDYZK",
        "gazetteer_uri": "",
        "collection": "courier",
        "gazetteer_label": "WEIJIUYI Guizhou (\u5c3e\u9152\u9a7f)",
        "status": "L",
        "comment": ""
      }
    },
    {
      "geometry": {
        "coordinates": [
          105.48582,
          25.91021
        ],
        "type": "Point"
      },
      "type": "Feature",
      "label": "\u67e5\u57ce",
      "id": "18",
      "properties": {
        "source": "MDYZK",
        "gazetteer_uri": "",
        "collection": "courier",
        "gazetteer_label": "CHACHENG Guizhou (\u67e5\u57ce)",
        "status": "Y",
        "comment": ""
      }
    },
    {
      "geometry": {
        "coordinates": [
          105.72882,
          35.5241
        ],
        "type": "Point"
      },
      "type": "Feature",
      "label": "\u6cfe\u9633\u9a7f",
      "id": "19",
      "properties": {
        "source": "MDYZK",
        "gazetteer_uri": "",
        "collection": "courier",
        "gazetteer_label": "JINGYANG Gansu (\u6cfe\u9633\u9a7f)",
        "status": "Y",
        "comment": ""
      }
    },
    {
      "geometry": {
        "coordinates": [
          105.76356,
          26.0546
        ],
        "type": "Point"
      },
      "type": "Feature",
      "label": "\u5b89\u5e84\u9a7f",
      "id": "20",
      "properties": {
        "source": "MDYZK",
        "gazetteer_uri": "",
        "collection": "courier",
        "gazetteer_label": "ANZHUANG Guizhou (\u5b89\u5e84\u9a7f)",
        "status": "Y",
        "comment": ""
      }
    },
    {
      "geometry": {
        "coordinates": [
          105.83299,
          32.44389
        ],
        "type": "Point"
      },
      "type": "Feature",
      "label": "\u95ee\u6d25\u9a7f",
      "id": "21",
      "properties": {
        "source": "MDYZK",
        "gazetteer_uri": "",
        "collection": "courier",
        "gazetteer_label": "WENJINYI Sichuan (\u95ee\u6d25\u9a7f)",
        "status": "Y",
        "comment": ""
      }
    },
    {
      "geometry": {
        "coordinates": [
          105.92786,
          26.24324
        ],
        "type": "Point"
      },
      "type": "Feature",
      "label": "\u666e\u5229\u9a7f",
      "id": "22",
      "properties": {
        "source": "MDYZK",
        "gazetteer_uri": "",
        "collection": "courier",
        "gazetteer_label": "PULIYI Guizhou (\u666e\u5229\u9a7f)",
        "status": "N",
        "comment": ""
      }
    },
    {
      "geometry": {
        "coordinates": [
          106.12224,
          35.61709
        ],
        "type": "Point"
      },
      "type": "Feature",
      "label": "\u9686\u57ce\u9a7f",
      "id": "23",
      "properties": {
        "source": "MDYZK",
        "gazetteer_uri": "",
        "collection": "courier",
        "gazetteer_label": "LONGCHENG Ningxia (\u9686\u57ce\u9a7f)",
        "status": "Y",
        "comment": ""
      }
    },
    {
      "geometry": {
        "coordinates": [
          106.26086,
          26.41779
        ],
        "type": "Point"
      },
      "type": "Feature",
      "label": "\u5e73\u575d\u9a7f",
      "id": "24",
      "properties": {
        "source": "MDYZK",
        "gazetteer_uri": "",
        "collection": "courier",
        "gazetteer_label": "PINGBA Guizhou (\u5e73\u575d\u9a7f)",
        "status": "Y",
        "comment": ""
      }
    },
    {
      "geometry": {
        "coordinates": [
          106.46762,
          26.55605
        ],
        "type": "Point"
      },
      "type": "Feature",
      "label": "\u5a01\u6e05\u9a7f",
      "id": "25",
      "properties": {
        "source": "MDYZK",
        "gazetteer_uri": "",
        "collection": "courier",
        "gazetteer_label": "WEIQING Guizhou (\u5a01\u6e05\u9a7f)",
        "status": "Y",
        "comment": ""
      }
    },
    {
      "geometry": {
        "coordinates": [
          106.62294,
          33.94525
        ],
        "type": "Point"
      },
      "type": "Feature",
      "label": "\u51e4\u53bf",
      "id": "26",
      "properties": {
        "source": "MDYZK",
        "gazetteer_uri": "",
        "collection": "courier",
        "gazetteer_label": "FENGXIANG Shaanxi (\u51e4\u53bf)",
        "status": "N",
        "comment": ""
      }
    },
    {
      "geometry": {
        "coordinates": [
          106.31997,
          35.69139
        ],
        "type": "Point"
      },
      "type": "Feature",
      "label": "\u74e6\u4ead\u9a7f",
      "id": "27",
      "properties": {
        "source": "MDYZK",
        "gazetteer_uri": "",
        "collection": "courier",
        "gazetteer_label": "WATING Ningxia (\u74e6\u4ead\u9a7f)",
        "status": "Y",
        "comment": ""
      }
    },
    {
      "geometry": {
        "coordinates": [
          106.68566,
          35.53585
        ],
        "type": "Point"
      },
      "type": "Feature",
      "label": "\u9ad8\u5e73\u9a7f",
      "id": "28",
      "properties": {
        "source": "MDYZK",
        "gazetteer_uri": "",
        "collection": "courier",
        "gazetteer_label": "GAOPING Gansu (\u9ad8\u5e73\u9a7f)",
        "status": "Y",
        "comment": ""
      }
    },
    {
      "geometry": {
        "coordinates": [
          106.70911,
          26.58078
        ],
        "type": "Point"
      },
      "type": "Feature",
      "label": "\u8d35\u5dde\u9a7f",
      "id": "29",
      "properties": {
        "source": "MDYZK",
        "gazetteer_uri": "",
        "collection": "courier",
        "gazetteer_label": "HUANGHUA Guizhou (\u8d35\u5dde\u9a7f)",
        "status": "N",
        "comment": ""
      }
    },
    {
      "geometry": {
        "coordinates": [
          106.7748,
          33.1379
        ],
        "type": "Point"
      },
      "type": "Feature",
      "label": "\u52c9\u53bf",
      "id": "30",
      "properties": {
        "source": "PA_1903",
        "gazetteer_uri": "",
        "collection": "courier",
        "gazetteer_label": "MIANXIAN Shaanxi (\u52c9\u53bf)",
        "status": "L",
        "comment": ""
      }
    },
    {
      "geometry": {
        "coordinates": [
          106.96926,
          33.20039
        ],
        "type": "Point"
      },
      "type": "Feature",
      "label": "\u8912\u57ce",
      "id": "31",
      "properties": {
        "source": "MDYZK",
        "gazetteer_uri": "",
        "collection": "courier",
        "gazetteer_label": "BAOCHENG Shaanxi (\u8912\u57ce)",
        "status": "Y",
        "comment": ""
      }
    },
    {
      "geometry": {
        "coordinates": [
          106.98106,
          26.45834
        ],
        "type": "Point"
      },
      "type": "Feature",
      "label": "\u9f99\u91cc\u9a7f",
      "id": "32",
      "properties": {
        "source": "MDYZK",
        "gazetteer_uri": "",
        "collection": "courier",
        "gazetteer_label": "LONGLI Guizhou (\u9f99\u91cc\u9a7f)",
        "status": "Y",
        "comment": ""
      }
    },
    {
      "geometry": {
        "coordinates": [
          107.14039,
          34.38187
        ],
        "type": "Point"
      },
      "type": "Feature",
      "label": "\u9648\u4ed3\u9a7f",
      "id": "33",
      "properties": {
        "source": "MDYZK",
        "gazetteer_uri": "",
        "collection": "courier",
        "gazetteer_label": "CHENCANG Shaanxi (\u9648\u4ed3\u9a7f)",
        "status": "Y",
        "comment": ""
      }
    },
    {
      "geometry": {
        "coordinates": [
          106.97579,
          35.42942
        ],
        "type": "Point"
      },
      "type": "Feature",
      "label": "\u767d\u6c34\u9a7f",
      "id": "34",
      "properties": {
        "source": "MDYZK",
        "gazetteer_uri": "",
        "collection": "courier",
        "gazetteer_label": "BAISHUI Gansu (\u767d\u6c34\u9a7f)",
        "status": "Y",
        "comment": ""
      }
    },
    {
      "geometry": {
        "coordinates": [
          107.23962,
          26.58565
        ],
        "type": "Point"
      },
      "type": "Feature",
      "label": "\u65b0\u6dfb\u9a7f",
      "id": "35",
      "properties": {
        "source": "MDYZK",
        "gazetteer_uri": "",
        "collection": "courier",
        "gazetteer_label": "XINTIAN Guizhou (\u65b0\u6dfb\u9a7f)",
        "status": "Y",
        "comment": ""
      }
    },
    {
      "geometry": {
        "coordinates": [
          107.36339,
          35.32881
        ],
        "type": "Point"
      },
      "type": "Feature",
      "label": "\u74e6\u4e91\u9a7f",
      "id": "36",
      "properties": {
        "source": "MDYZK",
        "gazetteer_uri": "",
        "collection": "courier",
        "gazetteer_label": "WAYUN Gansu (\u74e6\u4e91\u9a7f)",
        "status": "Y",
        "comment": ""
      }
    },
    {
      "geometry": {
        "coordinates": [
          107.62709,
          34.43964
        ],
        "type": "Point"
      },
      "type": "Feature",
      "label": "\u5c90\u5468\u9a7f",
      "id": "37",
      "properties": {
        "source": "MDYZK",
        "gazetteer_uri": "",
        "collection": "courier",
        "gazetteer_label": "QIZHOU Shaanxi (\u5c90\u5468\u9a7f)",
        "status": "Y",
        "comment": ""
      }
    },
    {
      "geometry": {
        "coordinates": [
          107.78898,
          26.65832
        ],
        "type": "Point"
      },
      "type": "Feature",
      "label": "\u6e05\u5e73\u9a7f",
      "id": "38",
      "properties": {
        "source": "MDYZK",
        "gazetteer_uri": "",
        "collection": "courier",
        "gazetteer_label": "QINGPING Guizhou (\u6e05\u5e73\u9a7f)",
        "status": "Y",
        "comment": ""
      }
    },
    {
      "geometry": {
        "coordinates": [
          107.78932,
          35.20544
        ],
        "type": "Point"
      },
      "type": "Feature",
      "label": "\u5b9c\u7984\u9a7f",
      "id": "39",
      "properties": {
        "source": "MDYZK",
        "gazetteer_uri": "",
        "collection": "courier",
        "gazetteer_label": "YILUYI Shaanxi (\u5b9c\u7984\u9a7f)",
        "status": "N",
        "comment": ""
      }
    },
    {
      "geometry": {
        "coordinates": [
          107.86849,
          34.36182
        ],
        "type": "Point"
      },
      "type": "Feature",
      "label": "\u51e4\u6cc9\u9a7f",
      "id": "40",
      "properties": {
        "source": "MDYZK",
        "gazetteer_uri": "",
        "collection": "courier",
        "gazetteer_label": "FENGQUAN Shaanxi (\u51e4\u6cc9\u9a7f)",
        "status": "Y",
        "comment": ""
      }
    },
    {
      "geometry": {
        "coordinates": [
          108.04397,
          34.81275
        ],
        "type": "Point"
      },
      "type": "Feature",
      "label": "\u6c38\u5b89\u9a7f",
      "id": "42",
      "properties": {
        "source": "MDYZK",
        "gazetteer_uri": "",
        "collection": "courier",
        "gazetteer_label": "YONG'AN Shaanxi (\u6c38\u5b89\u9a7f)",
        "status": "Y",
        "comment": ""
      }
    },
    {
      "geometry": {
        "coordinates": [
          108.07799,
          35.03966
        ],
        "type": "Point"
      },
      "type": "Feature",
      "label": "\u65b0\u5e73\u9a7f",
      "id": "43",
      "properties": {
        "source": "MDYZK",
        "gazetteer_uri": "",
        "collection": "courier",
        "gazetteer_label": "XINPING Shaanxi (\u65b0\u5e73\u9a7f)",
        "status": "Y",
        "comment": ""
      }
    },
    {
      "geometry": {
        "coordinates": [
          108.1051,
          34.33205
        ],
        "type": "Point"
      },
      "type": "Feature",
      "label": "\u90b0\u57ce\u9a7f",
      "id": "44",
      "properties": {
        "source": "MDYZK",
        "gazetteer_uri": "",
        "collection": "courier",
        "gazetteer_label": "TAICHENGYI Shaanxi (\u90b0\u57ce\u9a7f)",
        "status": "N",
        "comment": ""
      }
    },
    {
      "geometry": {
        "coordinates": [
          108.11893,
          27.03727
        ],
        "type": "Point"
      },
      "type": "Feature",
      "label": "\u504f\u6865\u9a7f",
      "id": "45",
      "properties": {
        "source": "MDYZK",
        "gazetteer_uri": "",
        "collection": "courier",
        "gazetteer_label": "PIANQIAO Guizhou (\u504f\u6865\u9a7f)",
        "status": "Y",
        "comment": ""
      }
    },
    {
      "geometry": {
        "coordinates": [
          108.2356,
          34.5303
        ],
        "type": "Point"
      },
      "type": "Feature",
      "label": "\u5a01\u80dc\u9a7f",
      "id": "46",
      "properties": {
        "source": "MDYZK",
        "gazetteer_uri": "",
        "collection": "courier",
        "gazetteer_label": "WEISHENG Shaanxi (\u5a01\u80dc\u9a7f)",
        "status": "Y",
        "comment": ""
      }
    },
    {
      "geometry": {
        "coordinates": [
          108.41845,
          27.05426
        ],
        "type": "Point"
      },
      "type": "Feature",
      "label": "\u9547\u8fdc\u9a7f",
      "id": "47",
      "properties": {
        "source": "MDYZK",
        "gazetteer_uri": "",
        "collection": "courier",
        "gazetteer_label": "ZHENYUAN Guizhou (\u9547\u8fdc\u9a7f)",
        "status": "Y",
        "comment": ""
      }
    },
    {
      "geometry": {
        "coordinates": [
          108.4826,
          34.29872
        ],
        "type": "Point"
      },
      "type": "Feature",
      "label": "\u767d\u6e20\u9a7f",
      "id": "48",
      "properties": {
        "source": "MDYZK",
        "gazetteer_uri": "",
        "collection": "courier",
        "gazetteer_label": "BAIQU Shaanxi (\u767d\u6e20\u9a7f)",
        "status": "Y",
        "comment": ""
      }
    },
    {
      "geometry": {
        "coordinates": [
          108.5271,
          34.42854
        ],
        "type": "Point"
      },
      "type": "Feature",
      "label": "\u5e97\u5f20",
      "id": "49",
      "properties": {
        "source": "PA_1903",
        "gazetteer_uri": "",
        "collection": "courier",
        "gazetteer_label": "DIANZHANG Shaanxi (\u5e97\u5f20)",
        "status": "L",
        "comment": ""
      }
    },
    {
      "geometry": {
        "coordinates": [
          108.73038,
          27.12668
        ],
        "type": "Point"
      },
      "type": "Feature",
      "label": "\u6e05\u6d6a\u536b",
      "id": "50",
      "properties": {
        "source": "MDYZK",
        "gazetteer_uri": "",
        "collection": "courier",
        "gazetteer_label": "QINGLANG Guizhou (\u6e05\u6d6a\u536b)",
        "status": "Y",
        "comment": ""
      }
    },
    {
      "geometry": {
        "coordinates": [
          108.91154,
          27.23593
        ],
        "type": "Point"
      },
      "type": "Feature",
      "label": "\u5e73\u6eaa\u9a7f",
      "id": "51",
      "properties": {
        "source": "MDYZK",
        "gazetteer_uri": "",
        "collection": "courier",
        "gazetteer_label": "PINGXI Guizhou (\u5e73\u6eaa\u9a7f)",
        "status": "Y",
        "comment": ""
      }
    },
    {
      "geometry": {
        "coordinates": [
          108.94421,
          34.26661
        ],
        "type": "Point"
      },
      "type": "Feature",
      "label": "\u4eac\u5146\u9a7f",
      "id": "52",
      "properties": {
        "source": "MDYZK",
        "gazetteer_uri": "",
        "collection": "courier",
        "gazetteer_label": "JINGZHAO Shaanxi (\u4eac\u5146\u9a7f)",
        "status": "Y",
        "comment": ""
      }
    },
    {
      "geometry": {
        "coordinates": [
          109.19851,
          27.3817
        ],
        "type": "Point"
      },
      "type": "Feature",
      "label": "\u6643\u5dde\u9a7f",
      "id": "53",
      "properties": {
        "source": "MDYZK",
        "gazetteer_uri": "",
        "collection": "courier",
        "gazetteer_label": "HUANGZHOU Hunan (\u6643\u5dde\u9a7f)",
        "status": "Y",
        "comment": ""
      }
    },
    {
      "geometry": {
        "coordinates": [
          109.2383,
          34.43141
        ],
        "type": "Point"
      },
      "type": "Feature",
      "label": "\u65b0\u4e30\u9a7f",
      "id": "54",
      "properties": {
        "source": "MDYZK",
        "gazetteer_uri": "",
        "collection": "courier",
        "gazetteer_label": "XINFENG Shaanxi (\u65b0\u4e30\u9a7f)",
        "status": "Y",
        "comment": ""
      }
    },
    {
      "geometry": {
        "coordinates": [
          109.50124,
          34.503
        ],
        "type": "Point"
      },
      "type": "Feature",
      "label": "\u4e30\u539f\u9a7f",
      "id": "55",
      "properties": {
        "source": "MDYZK",
        "gazetteer_uri": "",
        "collection": "courier",
        "gazetteer_label": "FENGYUAN Shaanxi (\u4e30\u539f\u9a7f)",
        "status": "Y",
        "comment": ""
      }
    },
    {
      "geometry": {
        "coordinates": [
          110.0784,
          34.53443
        ],
        "type": "Point"
      },
      "type": "Feature",
      "label": "\u534e\u5c71\u9a7f",
      "id": "56",
      "properties": {
        "source": "MDYZK",
        "gazetteer_uri": "",
        "collection": "courier",
        "gazetteer_label": "HUASHAN Shaanxi (\u534e\u5c71\u9a7f)",
        "status": "Y",
        "comment": ""
      }
    },
    {
      "geometry": {
        "coordinates": [
          110.08936,
          34.56831
        ],
        "type": "Point"
      },
      "type": "Feature",
      "label": "\u6f7c\u6d25\u9a7f",
      "id": "57",
      "properties": {
        "source": "MDYZK",
        "gazetteer_uri": "",
        "collection": "courier",
        "gazetteer_label": "TONGJIN Shaanxi (\u6f7c\u6d25\u9a7f)",
        "status": "Y",
        "comment": ""
      }
    },
    {
      "geometry": {
        "coordinates": [
          110.15422,
          28.28003
        ],
        "type": "Point"
      },
      "type": "Feature",
      "label": "\u8239\u6eaa\u9a7f",
      "id": "58",
      "properties": {
        "source": "MDYZK",
        "gazetteer_uri": "",
        "collection": "courier",
        "gazetteer_label": "CHUANXIYI Hunan (\u8239\u6eaa\u9a7f)",
        "status": "Y",
        "comment": ""
      }
    },
    {
      "geometry": {
        "coordinates": [
          110.18265,
          28.01848
        ],
        "type": "Point"
      },
      "type": "Feature",
      "label": "\u8fb0\u9633\u6c34\u9a7f",
      "id": "59",
      "properties": {
        "source": "MDYZK",
        "gazetteer_uri": "",
        "collection": "courier",
        "gazetteer_label": "CHENYANGSHUIYI Hunan (\u8fb0\u9633\u6c34\u9a7f)",
        "status": "Y",
        "comment": ""
      }
    },
    {
      "geometry": {
        "coordinates": [
          110.27365,
          34.59881
        ],
        "type": "Point"
      },
      "type": "Feature",
      "label": "\u6f7c\u5173\u9a7f",
      "id": "60",
      "properties": {
        "source": "MDYZK",
        "gazetteer_uri": "",
        "collection": "courier",
        "gazetteer_label": "TONGGUAN Shaanxi (\u6f7c\u5173\u9a7f)",
        "status": "Y",
        "comment": ""
      }
    },
    {
      "geometry": {
        "coordinates": [
          110.28626,
          25.28006
        ],
        "type": "Point"
      },
      "type": "Feature",
      "label": "\u4e1c\u6c5f\u9a7f",
      "id": "61",
      "properties": {
        "source": "MDYZK",
        "gazetteer_uri": "",
        "collection": "courier",
        "gazetteer_label": "DONGJIANG Guangxi (\u4e1c\u6c5f\u9a7f)",
        "status": "Y",
        "comment": ""
      }
    },
    {
      "geometry": {
        "coordinates": [
          110.38369,
          25.4632
        ],
        "type": "Point"
      },
      "type": "Feature",
      "label": "\u5927\u9f99\u9a7f",
      "id": "62",
      "properties": {
        "source": "MDYZK",
        "gazetteer_uri": "",
        "collection": "courier",
        "gazetteer_label": "DALONG Guangxi (\u5927\u9f99\u9a7f)",
        "status": "Y",
        "comment": ""
      }
    },
    {
      "geometry": {
        "coordinates": [
          110.39697,
          28.45819
        ],
        "type": "Point"
      },
      "type": "Feature",
      "label": "\u6021\u5bb9\u9a7f",
      "id": "63",
      "properties": {
        "source": "MDYZK",
        "gazetteer_uri": "",
        "collection": "courier",
        "gazetteer_label": "YIRONGYI Hunan (\u6021\u5bb9\u9a7f)",
        "status": "Y",
        "comment": ""
      }
    },
    {
      "geometry": {
        "coordinates": [
          110.596,
          35.056
        ],
        "type": "Point"
      },
      "type": "Feature",
      "label": "\u6a0a\u6865\u9a7f",
      "id": "64",
      "properties": {
        "source": "MDYZK",
        "gazetteer_uri": "",
        "collection": "courier",
        "gazetteer_label": "FANQIAOYI Shanxi (\u6a0a\u6865\u9a7f)",
        "status": "Y",
        "comment": ""
      }
    },
    {
      "geometry": {
        "coordinates": [
          110.66587,
          25.61313
        ],
        "type": "Point"
      },
      "type": "Feature",
      "label": "\u767d\u4e91\u9a7f",
      "id": "65",
      "properties": {
        "source": "MDYZK",
        "gazetteer_uri": "",
        "collection": "courier",
        "gazetteer_label": "BAIYUNYI Guangxi (\u767d\u4e91\u9a7f)",
        "status": "N",
        "comment": ""
      }
    },
    {
      "geometry": {
        "coordinates": [
          110.95201,
          35.06637
        ],
        "type": "Point"
      },
      "type": "Feature",
      "label": "\u6cd3\u829d\u9a7f",
      "id": "66",
      "properties": {
        "source": "MDYZK",
        "gazetteer_uri": "",
        "collection": "courier",
        "gazetteer_label": "HONGZHI Shanxi (\u6cd3\u829d\u9a7f)",
        "status": "Y",
        "comment": ""
      }
    },
    {
      "geometry": {
        "coordinates": [
          111.065,
          25.93181
        ],
        "type": "Point"
      },
      "type": "Feature",
      "label": "\u57ce\u5357\u9a7f",
      "id": "67",
      "properties": {
        "source": "MDYZK",
        "gazetteer_uri": "",
        "collection": "courier",
        "gazetteer_label": "CHENGNAN Guangxi (\u57ce\u5357\u9a7f)",
        "status": "Y",
        "comment": ""
      }
    },
    {
      "geometry": {
        "coordinates": [
          111.21721,
          35.35772
        ],
        "type": "Point"
      },
      "type": "Feature",
      "label": "\u6d91\u5ddd\u9a7f",
      "id": "68",
      "properties": {
        "source": "MDYZK",
        "gazetteer_uri": "",
        "collection": "courier",
        "gazetteer_label": "SUCHUANYI Shanxi (\u6d91\u5ddd\u9a7f)",
        "status": "N",
        "comment": ""
      }
    },
    {
      "geometry": {
        "coordinates": [
          111.44948,
          35.7921
        ],
        "type": "Point"
      },
      "type": "Feature",
      "label": "\u8499\u57ce\u9a7f",
      "id": "69",
      "properties": {
        "source": "MDYZK",
        "gazetteer_uri": "",
        "collection": "courier",
        "gazetteer_label": "MENGCHENGYI Shanxi (\u8499\u57ce\u9a7f)",
        "status": "Y",
        "comment": ""
      }
    },
    {
      "geometry": {
        "coordinates": [
          111.47777,
          28.9016
        ],
        "type": "Point"
      },
      "type": "Feature",
      "label": "\u6843\u6e90\u9a7f",
      "id": "70",
      "properties": {
        "source": "MDYZK",
        "gazetteer_uri": "",
        "collection": "courier",
        "gazetteer_label": "TAOYUAN Hunan (\u6843\u6e90\u9a7f)",
        "status": "Y",
        "comment": ""
      }
    },
    {
      "geometry": {
        "coordinates": [
          111.51543,
          36.07804
        ],
        "type": "Point"
      },
      "type": "Feature",
      "label": "\u5efa\u96c4\u9a7f",
      "id": "71",
      "properties": {
        "source": "MDYZK",
        "gazetteer_uri": "",
        "collection": "courier",
        "gazetteer_label": "JIANXIONG Shanxi (\u5efa\u96c4\u9a7f)",
        "status": "Y",
        "comment": ""
      }
    },
    {
      "geometry": {
        "coordinates": [
          111.61256,
          26.21034
        ],
        "type": "Point"
      },
      "type": "Feature",
      "label": "\u96f6\u9675",
      "id": "72",
      "properties": {
        "source": "PA_1903",
        "gazetteer_uri": "",
        "collection": "courier",
        "gazetteer_label": "LINGLING Hunan (\u96f6\u9675)",
        "status": "N",
        "comment": ""
      }
    },
    {
      "geometry": {
        "coordinates": [
          111.68291,
          36.2594
        ],
        "type": "Point"
      },
      "type": "Feature",
      "label": "\u666e\u6da7\u9a7f",
      "id": "73",
      "properties": {
        "source": "MDYZK",
        "gazetteer_uri": "",
        "collection": "courier",
        "gazetteer_label": "PUJIANYI Shanxi (\u666e\u6da7\u9a7f)",
        "status": "N",
        "comment": ""
      }
    },
    {
      "geometry": {
        "coordinates": [
          111.6913,
          29.03481
        ],
        "type": "Point"
      },
      "type": "Feature",
      "label": "\u5927\u9f99\u9a7f",
      "id": "74",
      "properties": {
        "source": "MDYZK",
        "gazetteer_uri": "",
        "collection": "courier",
        "gazetteer_label": "DALONG Hunan (\u5927\u9f99\u9a7f)",
        "status": "Y",
        "comment": ""
      }
    },
    {
      "geometry": {
        "coordinates": [
          111.72808,
          36.56382
        ],
        "type": "Point"
      },
      "type": "Feature",
      "label": "\u970d\u5c71\u9a7f",
      "id": "75",
      "properties": {
        "source": "MDYZK",
        "gazetteer_uri": "",
        "collection": "courier",
        "gazetteer_label": "HUOSHAN Shanxi (\u970d\u5c71\u9a7f)",
        "status": "Y",
        "comment": ""
      }
    },
    {
      "geometry": {
        "coordinates": [
          111.75699,
          29.64015
        ],
        "type": "Point"
      },
      "type": "Feature",
      "label": "\u5170\u6c5f\u9a7f",
      "id": "76",
      "properties": {
        "source": "MDYZK",
        "gazetteer_uri": "",
        "collection": "courier",
        "gazetteer_label": "LANJIANGYI Hunan (\u5170\u6c5f\u9a7f)",
        "status": "Y",
        "comment": ""
      }
    },
    {
      "geometry": {
        "coordinates": [
          111.77621,
          36.84215
        ],
        "type": "Point"
      },
      "type": "Feature",
      "label": "\u745e\u77f3\u9a7f",
      "id": "77",
      "properties": {
        "source": "MDYZK",
        "gazetteer_uri": "",
        "collection": "courier",
        "gazetteer_label": "RUISHI Shanxi (\u745e\u77f3\u9a7f)",
        "status": "Y",
        "comment": ""
      }
    },
    {
      "geometry": {
        "coordinates": [
          111.91216,
          37.02647
        ],
        "type": "Point"
      },
      "type": "Feature",
      "label": "\u4e49\u68e0\u9a7f",
      "id": "78",
      "properties": {
        "source": "MDYZK",
        "gazetteer_uri": "",
        "collection": "courier",
        "gazetteer_label": "YITANG Shanxi (\u4e49\u68e0\u9a7f)",
        "status": "Y",
        "comment": ""
      }
    },
    {
      "geometry": {
        "coordinates": [
          111.8559,
          26.59169
        ],
        "type": "Point"
      },
      "type": "Feature",
      "label": "\u4e09\u543e\u9a7f",
      "id": "79",
      "properties": {
        "source": "MDYZK",
        "gazetteer_uri": "",
        "collection": "courier",
        "gazetteer_label": "SANWUYI Hunan (\u4e09\u543e\u9a7f)",
        "status": "N",
        "comment": ""
      }
    },
    {
      "geometry": {
        "coordinates": [
          112.0781,
          29.9145
        ],
        "type": "Point"
      },
      "type": "Feature",
      "label": "\u5b71\u9675\u9a7f",
      "id": "80",
      "properties": {
        "source": "MDYZK",
        "gazetteer_uri": "",
        "collection": "courier",
        "gazetteer_label": "CHANLING Hubei (\u5b71\u9675\u9a7f)",
        "status": "Y",
        "comment": ""
      }
    },
    {
      "geometry": {
        "coordinates": [
          112.15586,
          32.02028
        ],
        "type": "Point"
      },
      "type": "Feature",
      "label": "\u6c49\u6c5f\u9a7f",
      "id": "81",
      "properties": {
        "source": "MDYZK",
        "gazetteer_uri": "",
        "collection": "courier",
        "gazetteer_label": "HANJIANGYI Hubei (\u6c49\u6c5f\u9a7f)",
        "status": "N",
        "comment": ""
      }
    },
    {
      "geometry": {
        "coordinates": [
          112.19077,
          30.35044
        ],
        "type": "Point"
      },
      "type": "Feature",
      "label": "\u8346\u5357\u9a7f",
      "id": "82",
      "properties": {
        "source": "MDYZK",
        "gazetteer_uri": "",
        "collection": "courier",
        "gazetteer_label": "JINGNAN Hubei (\u8346\u5357\u9a7f)",
        "status": "Y",
        "comment": ""
      }
    },
    {
      "geometry": {
        "coordinates": [
          112.19842,
          31.02873
        ],
        "type": "Point"
      },
      "type": "Feature",
      "label": "\u8346\u5c71\u9a7f",
      "id": "83",
      "properties": {
        "source": "MDYZK",
        "gazetteer_uri": "",
        "collection": "courier",
        "gazetteer_label": "JINGSHANYI Hubei (\u8346\u5c71\u9a7f)",
        "status": "Y",
        "comment": ""
      }
    },
    {
      "geometry": {
        "coordinates": [
          112.2168,
          37.28425
        ],
        "type": "Point"
      },
      "type": "Feature",
      "label": "\u6d2a\u5584\u9a7f",
      "id": "84",
      "properties": {
        "source": "MDYZK",
        "gazetteer_uri": "",
        "collection": "courier",
        "gazetteer_label": "HONGSHANYI Shanxi (\u6d2a\u5584\u9a7f)",
        "status": "Y",
        "comment": ""
      }
    },
    {
      "geometry": {
        "coordinates": [
          112.26013,
          31.7107
        ],
        "type": "Point"
      },
      "type": "Feature",
      "label": "\u9122\u57ce\u9a7f",
      "id": "85",
      "properties": {
        "source": "MDYZK",
        "gazetteer_uri": "",
        "collection": "courier",
        "gazetteer_label": "YANCHENG Hubei (\u9122\u57ce\u9a7f)",
        "status": "Y",
        "comment": ""
      }
    },
    {
      "geometry": {
        "coordinates": [
          112.3153,
          37.35382
        ],
        "type": "Point"
      },
      "type": "Feature",
      "label": "\u7941\u53bf",
      "id": "86",
      "properties": {
        "source": "MDYZK",
        "gazetteer_uri": "",
        "collection": "courier",
        "gazetteer_label": "QIXIAN Shanxi (\u7941\u53bf)",
        "status": "Y",
        "comment": ""
      }
    },
    {
      "geometry": {
        "coordinates": [
          112.35843,
          32.52487
        ],
        "type": "Point"
      },
      "type": "Feature",
      "label": "\u6e4d\u9633\u9a7f",
      "id": "87",
      "properties": {
        "source": "MDYZK",
        "gazetteer_uri": "",
        "collection": "courier",
        "gazetteer_label": "TUANYANG Henan (\u6e4d\u9633\u9a7f)",
        "status": "Y",
        "comment": ""
      }
    },
    {
      "geometry": {
        "coordinates": [
          112.509,
          37.55718
        ],
        "type": "Point"
      },
      "type": "Feature",
      "label": "\u5f90\u6c9f",
      "id": "88",
      "properties": {
        "source": "MDYZK",
        "gazetteer_uri": "",
        "collection": "courier",
        "gazetteer_label": "XUGOU Shanxi (\u5f90\u6c9f)",
        "status": "Y",
        "comment": ""
      }
    },
    {
      "geometry": {
        "coordinates": [
          112.47893,
          37.72759
        ],
        "type": "Point"
      },
      "type": "Feature",
      "label": "\u4e34\u6c7e\u9a7f",
      "id": "89",
      "properties": {
        "source": "MDYZK",
        "gazetteer_uri": "",
        "collection": "courier",
        "gazetteer_label": "LINFENYI Shanxi (\u4e34\u6c7e\u9a7f)",
        "status": "Y",
        "comment": ""
      }
    },
    {
      "geometry": {
        "coordinates": [
          112.59704,
          26.90162
        ],
        "type": "Point"
      },
      "type": "Feature",
      "label": "\u4e34\u4e1e\u9a7f",
      "id": "90",
      "properties": {
        "source": "MDYZK",
        "gazetteer_uri": "",
        "collection": "courier",
        "gazetteer_label": "LINCHENGYI Hunan (\u4e34\u4e1e\u9a7f)",
        "status": "N",
        "comment": ""
      }
    },
    {
      "geometry": {
        "coordinates": [
          112.6978,
          37.76786
        ],
        "type": "Point"
      },
      "type": "Feature",
      "label": "\u9e23\u8c26\u9a7f",
      "id": "91",
      "properties": {
        "source": "MDYZK",
        "gazetteer_uri": "",
        "collection": "courier",
        "gazetteer_label": "MINGQIAN Shanxi (\u9e23\u8c26\u9a7f)",
        "status": "Y",
        "comment": ""
      }
    },
    {
      "geometry": {
        "coordinates": [
          112.7118,
          33.16429
        ],
        "type": "Point"
      },
      "type": "Feature",
      "label": "\u535a\u671b\u9a7f",
      "id": "92",
      "properties": {
        "source": "MDYZK",
        "gazetteer_uri": "",
        "collection": "courier",
        "gazetteer_label": "BOWANG Henan (\u535a\u671b\u9a7f)",
        "status": "Y",
        "comment": ""
      }
    },
    {
      "geometry": {
        "coordinates": [
          112.7121,
          38.7266
        ],
        "type": "Point"
      },
      "type": "Feature",
      "label": "\u539f\u5e73\u9a7f",
      "id": "93",
      "properties": {
        "source": "MDYZK",
        "gazetteer_uri": "",
        "collection": "courier",
        "gazetteer_label": "YUANPING Shanxi (\u539f\u5e73\u9a7f)",
        "status": "Y",
        "comment": ""
      }
    },
    {
      "geometry": {
        "coordinates": [
          112.85242,
          27.24565
        ],
        "type": "Point"
      },
      "type": "Feature",
      "label": "\u9ec4\u5821\u9a7f",
      "id": "94",
      "properties": {
        "source": "MDYZK",
        "gazetteer_uri": "",
        "collection": "courier",
        "gazetteer_label": "HUANGBAO Hunan (\u9ec4\u5821\u9a7f)",
        "status": "Y",
        "comment": ""
      }
    },
    {
      "geometry": {
        "coordinates": [
          112.88029,
          28.67621
        ],
        "type": "Point"
      },
      "type": "Feature",
      "label": "\u7b19\u7af9\u9a7f",
      "id": "95",
      "properties": {
        "source": "MDYZK",
        "gazetteer_uri": "",
        "collection": "courier",
        "gazetteer_label": "SHENGZHUYI Hunan (\u7b19\u7af9\u9a7f)",
        "status": "N",
        "comment": ""
      }
    },
    {
      "geometry": {
        "coordinates": [
          112.88607,
          23.16587
        ],
        "type": "Point"
      },
      "type": "Feature",
      "label": "\u897f\u5357\u9a7f",
      "id": "96",
      "properties": {
        "source": "MDYZK",
        "gazetteer_uri": "",
        "collection": "courier",
        "gazetteer_label": "XI'NAN Guangdong (\u897f\u5357\u9a7f)",
        "status": "Y",
        "comment": ""
      }
    },
    {
      "geometry": {
        "coordinates": [
          112.91126,
          27.8727
        ],
        "type": "Point"
      },
      "type": "Feature",
      "label": "\u6e58\u6f6d\u9a7f",
      "id": "97",
      "properties": {
        "source": "MDYZK",
        "gazetteer_uri": "",
        "collection": "courier",
        "gazetteer_label": "XIANGTANYI Hunan (\u6e58\u6f6d\u9a7f)",
        "status": "Y",
        "comment": ""
      }
    },
    {
      "geometry": {
        "coordinates": [
          112.94904,
          39.06039
        ],
        "type": "Point"
      },
      "type": "Feature",
      "label": "\u96c1\u95e8\u9a7f",
      "id": "98",
      "properties": {
        "source": "MDYZK",
        "gazetteer_uri": "",
        "collection": "courier",
        "gazetteer_label": "YANMEN Shanxi (\u96c1\u95e8\u9a7f)",
        "status": "Y",
        "comment": ""
      }
    },
    {
      "geometry": {
        "coordinates": [
          112.97813,
          28.1982
        ],
        "type": "Point"
      },
      "type": "Feature",
      "label": "\u4e34\u6e58\u9a7f",
      "id": "99",
      "properties": {
        "source": "MDYZK",
        "gazetteer_uri": "",
        "collection": "courier",
        "gazetteer_label": "LINXIANGYI Hunan (\u4e34\u6e58\u9a7f)",
        "status": "N",
        "comment": ""
      }
    },
    {
      "geometry": {
        "coordinates": [
          112.99251,
          33.26008
        ],
        "type": "Point"
      },
      "type": "Feature",
      "label": "\u8d6d\u9633\u9a7f",
      "id": "100",
      "properties": {
        "source": "MDYZK",
        "gazetteer_uri": "",
        "collection": "courier",
        "gazetteer_label": "ZHEYANG Henan (\u8d6d\u9633\u9a7f)",
        "status": "Y",
        "comment": ""
      }
    },
    {
      "geometry": {
        "coordinates": [
          113.02213,
          23.72073
        ],
        "type": "Point"
      },
      "type": "Feature",
      "label": "\u5b89\u8fdc\u9a7f",
      "id": "101",
      "properties": {
        "source": "MDYZK",
        "gazetteer_uri": "",
        "collection": "courier",
        "gazetteer_label": "ANYUAN Guangdong (\u5b89\u8fdc\u9a7f)",
        "status": "Y",
        "comment": ""
      }
    },
    {
      "geometry": {
        "coordinates": [
          113.09766,
          29.37126
        ],
        "type": "Point"
      },
      "type": "Feature",
      "label": "\u5cb3\u9633\u9a7f",
      "id": "102",
      "properties": {
        "source": "MDYZK",
        "gazetteer_uri": "",
        "collection": "courier",
        "gazetteer_label": "YUEYANG Hunan (\u5cb3\u9633\u9a7f)",
        "status": "Y",
        "comment": ""
      }
    },
    {
      "geometry": {
        "coordinates": [
          113.16871,
          37.88678
        ],
        "type": "Point"
      },
      "type": "Feature",
      "label": "\u592a\u5b89\u9a7f",
      "id": "103",
      "properties": {
        "source": "MDYZK",
        "gazetteer_uri": "",
        "collection": "courier",
        "gazetteer_label": "TAI'AN Shanxi (\u592a\u5b89\u9a7f)",
        "status": "Y",
        "comment": ""
      }
    },
    {
      "geometry": {
        "coordinates": [
          113.25607,
          23.13462
        ],
        "type": "Point"
      },
      "type": "Feature",
      "label": "\u4e94\u7f8a\u9a7f",
      "id": "104",
      "properties": {
        "source": "MDYZK",
        "gazetteer_uri": "",
        "collection": "courier",
        "gazetteer_label": "WUYANG Guangdong (\u4e94\u7f8a\u9a7f)",
        "status": "Y",
        "comment": ""
      }
    },
    {
      "geometry": {
        "coordinates": [
          113.272,
          39.19
        ],
        "type": "Point"
      },
      "type": "Feature",
      "label": "\u7e41\u5cd9",
      "id": "105",
      "properties": {
        "source": "MDYZK",
        "gazetteer_uri": "",
        "collection": "courier",
        "gazetteer_label": "FANZHI Shanxi (\u7e41\u5cd9)",
        "status": "Y",
        "comment": ""
      }
    },
    {
      "geometry": {
        "coordinates": [
          113.29287,
          29.58814
        ],
        "type": "Point"
      },
      "type": "Feature",
      "label": "\u4e34\u6e58",
      "id": "106",
      "properties": {
        "source": "MDYZK",
        "gazetteer_uri": "",
        "collection": "courier",
        "gazetteer_label": "LINXIANG Hunan (\u4e34\u6e58)",
        "status": "Y",
        "comment": ""
      }
    },
    {
      "geometry": {
        "coordinates": [
          113.34553,
          33.6233
        ],
        "type": "Point"
      },
      "type": "Feature",
      "label": "\u6ecd\u6c34\u9a7f",
      "id": "107",
      "properties": {
        "source": "MDYZK",
        "gazetteer_uri": "",
        "collection": "courier",
        "gazetteer_label": "ZHISHUI Henan (\u6ecd\u6c34\u9a7f)",
        "status": "Y",
        "comment": ""
      }
    },
    {
      "geometry": {
        "coordinates": [
          113.52824,
          34.98441
        ],
        "type": "Point"
      },
      "type": "Feature",
      "label": "\u5e7f\u6b66\u9a7f",
      "id": "108",
      "properties": {
        "source": "MDYZK",
        "gazetteer_uri": "",
        "collection": "courier",
        "gazetteer_label": "GUANGWU Henan (\u5e7f\u6b66\u9a7f)",
        "status": "Y",
        "comment": ""
      }
    },
    {
      "geometry": {
        "coordinates": [
          113.40208,
          24.17294
        ],
        "type": "Point"
      },
      "type": "Feature",
      "label": "\u82f1\u5fb7",
      "id": "109",
      "properties": {
        "source": "MDYZK",
        "gazetteer_uri": "",
        "collection": "courier",
        "gazetteer_label": "YINGDE Guangdong (\u82f1\u5fb7)",
        "status": "Y",
        "comment": ""
      }
    },
    {
      "geometry": {
        "coordinates": [
          113.2743,
          37.8696
        ],
        "type": "Point"
      },
      "type": "Feature",
      "label": "\u82b9\u6cc9\u9a7f",
      "id": "110",
      "properties": {
        "source": "MDYZK",
        "gazetteer_uri": "",
        "collection": "courier",
        "gazetteer_label": "QINQUANYI Shanxi (\u82b9\u6cc9\u9a7f)",
        "status": "Y",
        "comment": ""
      }
    },
    {
      "geometry": {
        "coordinates": [
          113.46706,
          34.16249
        ],
        "type": "Point"
      },
      "type": "Feature",
      "label": "\u6e05\u9896\u9a7f",
      "id": "111",
      "properties": {
        "source": "MDYZK",
        "gazetteer_uri": "",
        "collection": "courier",
        "gazetteer_label": "QINGYING Henan (\u6e05\u9896\u9a7f)",
        "status": "Y",
        "comment": ""
      }
    },
    {
      "geometry": {
        "coordinates": [
          113.47237,
          33.85369
        ],
        "type": "Point"
      },
      "type": "Feature",
      "label": "\u65b0\u57ce\u9a7f",
      "id": "112",
      "properties": {
        "source": "MDYZK",
        "gazetteer_uri": "",
        "collection": "courier",
        "gazetteer_label": "XINCHENG Henan (\u65b0\u57ce\u9a7f)",
        "status": "Y",
        "comment": ""
      }
    },
    {
      "geometry": {
        "coordinates": [
          113.60342,
          24.81021
        ],
        "type": "Point"
      },
      "type": "Feature",
      "label": "\u8299\u84c9\u9a7f",
      "id": "113",
      "properties": {
        "source": "MDYZK",
        "gazetteer_uri": "",
        "collection": "courier",
        "gazetteer_label": "FURONG Guangdong (\u8299\u84c9\u9a7f)",
        "status": "Y",
        "comment": ""
      }
    },
    {
      "geometry": {
        "coordinates": [
          113.62227,
          37.80204
        ],
        "type": "Point"
      },
      "type": "Feature",
      "label": "\u5e73\u6f6d\u9a7f",
      "id": "114",
      "properties": {
        "source": "MDYZK",
        "gazetteer_uri": "",
        "collection": "courier",
        "gazetteer_label": "PINGTANYI Shanxi (\u5e73\u6f6d\u9a7f)",
        "status": "N",
        "comment": ""
      }
    },
    {
      "geometry": {
        "coordinates": [
          113.64131,
          34.75808
        ],
        "type": "Point"
      },
      "type": "Feature",
      "label": "\u7ba1\u57ce\u9a7f",
      "id": "115",
      "properties": {
        "source": "MDYZK",
        "gazetteer_uri": "",
        "collection": "courier",
        "gazetteer_label": "GUANCHENGYI Henan (\u7ba1\u57ce\u9a7f)",
        "status": "N",
        "comment": ""
      }
    },
    {
      "geometry": {
        "coordinates": [
          113.6869,
          31.25261
        ],
        "type": "Point"
      },
      "type": "Feature",
      "label": "\u5fb7\u5b89\u5e9c",
      "id": "116",
      "properties": {
        "source": "MDYZK",
        "gazetteer_uri": "",
        "collection": "courier",
        "gazetteer_label": "DE'ANFU Hubei (\u5fb7\u5b89\u5e9c)",
        "status": "N",
        "comment": ""
      }
    },
    {
      "geometry": {
        "coordinates": [
          113.805,
          37.81944
        ],
        "type": "Point"
      },
      "type": "Feature",
      "label": "\u67cf\u4e95\u9a7f",
      "id": "117",
      "properties": {
        "source": "MDYZK",
        "gazetteer_uri": "",
        "collection": "courier",
        "gazetteer_label": "BAIJING Shanxi (\u67cf\u4e95\u9a7f)",
        "status": "Y",
        "comment": ""
      }
    },
    {
      "geometry": {
        "coordinates": [
          113.71909,
          34.39732
        ],
        "type": "Point"
      },
      "type": "Feature",
      "label": "\u90ed\u5e97\u9a7f",
      "id": "118",
      "properties": {
        "source": "MDYZK",
        "gazetteer_uri": "",
        "collection": "courier",
        "gazetteer_label": "GUODIAN Henan (\u90ed\u5e97\u9a7f)",
        "status": "Y",
        "comment": ""
      }
    },
    {
      "geometry": {
        "coordinates": [
          113.7333,
          31.02003
        ],
        "type": "Point"
      },
      "type": "Feature",
      "label": "\u4e91\u68a6",
      "id": "119",
      "properties": {
        "source": "MDYZK",
        "gazetteer_uri": "",
        "collection": "courier",
        "gazetteer_label": "YUNMENG Hubei (\u4e91\u68a6)",
        "status": "Y",
        "comment": ""
      }
    },
    {
      "geometry": {
        "coordinates": [
          113.86825,
          35.30994
        ],
        "type": "Point"
      },
      "type": "Feature",
      "label": "\u65b0\u4e2d\u9a7f",
      "id": "120",
      "properties": {
        "source": "MDYZK",
        "gazetteer_uri": "",
        "collection": "courier",
        "gazetteer_label": "XINZHONG Henan (\u65b0\u4e2d\u9a7f)",
        "status": "Y",
        "comment": ""
      }
    },
    {
      "geometry": {
        "coordinates": [
          113.87461,
          29.70835
        ],
        "type": "Point"
      },
      "type": "Feature",
      "label": "\u51e4\u5c71\u9a7f",
      "id": "121",
      "properties": {
        "source": "MDYZK",
        "gazetteer_uri": "",
        "collection": "courier",
        "gazetteer_label": "FENGSHANYI Hubei (\u51e4\u5c71\u9a7f)",
        "status": "N",
        "comment": ""
      }
    },
    {
      "geometry": {
        "coordinates": [
          113.91641,
          39.43094
        ],
        "type": "Point"
      },
      "type": "Feature",
      "label": "\u738b\u5bb6\u5e84\u9a7f",
      "id": "122",
      "properties": {
        "source": "MDYZK",
        "gazetteer_uri": "",
        "collection": "courier",
        "gazetteer_label": "WANGJIAZHUANG Shanxi (\u738b\u5bb6\u5e84\u9a7f)",
        "status": "Y",
        "comment": ""
      }
    },
    {
      "geometry": {
        "coordinates": [
          113.96064,
          33.80861
        ],
        "type": "Point"
      },
      "type": "Feature",
      "label": "\u4e34\u9896\u9a7f",
      "id": "123",
      "properties": {
        "source": "MDYZK",
        "gazetteer_uri": "",
        "collection": "courier",
        "gazetteer_label": "LINYING Henan (\u4e34\u9896\u9a7f)",
        "status": "Y",
        "comment": ""
      }
    },
    {
      "geometry": {
        "coordinates": [
          113.9657,
          33.58221
        ],
        "type": "Point"
      },
      "type": "Feature",
      "label": "\u90fe\u57ce\u9a7f",
      "id": "124",
      "properties": {
        "source": "MDYZK",
        "gazetteer_uri": "",
        "collection": "courier",
        "gazetteer_label": "YANCHENG Henan (\u90fe\u57ce\u9a7f)",
        "status": "Y",
        "comment": ""
      }
    },
    {
      "geometry": {
        "coordinates": [
          114.01553,
          33.38906
        ],
        "type": "Point"
      },
      "type": "Feature",
      "label": "\u897f\u5e73\u9a7f",
      "id": "125",
      "properties": {
        "source": "MDYZK",
        "gazetteer_uri": "",
        "collection": "courier",
        "gazetteer_label": "XIPING Henan (\u897f\u5e73\u9a7f)",
        "status": "Y",
        "comment": ""
      }
    },
    {
      "geometry": {
        "coordinates": [
          114.01778,
          38.00616
        ],
        "type": "Point"
      },
      "type": "Feature",
      "label": "\u9649\u5c71\u9a7f",
      "id": "126",
      "properties": {
        "source": "MDYZK",
        "gazetteer_uri": "",
        "collection": "courier",
        "gazetteer_label": "XINGSHAN Hebei (\u9649\u5c71\u9a7f)",
        "status": "Y",
        "comment": ""
      }
    },
    {
      "geometry": {
        "coordinates": [
          114.07027,
          35.41039
        ],
        "type": "Point"
      },
      "type": "Feature",
      "label": "\u536b\u6e90\u9a7f",
      "id": "127",
      "properties": {
        "source": "MDYZK",
        "gazetteer_uri": "",
        "collection": "courier",
        "gazetteer_label": "WEIYUANYI Henan (\u536b\u6e90\u9a7f)",
        "status": "N",
        "comment": ""
      }
    },
    {
      "geometry": {
        "coordinates": [
          114.19437,
          35.60645
        ],
        "type": "Point"
      },
      "type": "Feature",
      "label": "\u6dc7\u95e8\u9a7f",
      "id": "128",
      "properties": {
        "source": "MDYZK",
        "gazetteer_uri": "",
        "collection": "courier",
        "gazetteer_label": "QIMEN Henan (\u6dc7\u95e8\u9a7f)",
        "status": "Y",
        "comment": ""
      }
    },
    {
      "geometry": {
        "coordinates": [
          114.19469,
          35.14276
        ],
        "type": "Point"
      },
      "type": "Feature",
      "label": "\u5eea\u5ef7\u9a7f",
      "id": "129",
      "properties": {
        "source": "MDYZK",
        "gazetteer_uri": "",
        "collection": "courier",
        "gazetteer_label": "LITINGYI Henan (\u5eea\u5ef7\u9a7f)",
        "status": "N",
        "comment": ""
      }
    },
    {
      "geometry": {
        "coordinates": [
          114.22922,
          39.43774
        ],
        "type": "Point"
      },
      "type": "Feature",
      "label": "\u592a\u767d\u9a7f",
      "id": "130",
      "properties": {
        "source": "MDYZK",
        "gazetteer_uri": "",
        "collection": "courier",
        "gazetteer_label": "TAIBAI Shanxi (\u592a\u767d\u9a7f)",
        "status": "Y",
        "comment": ""
      }
    },
    {
      "geometry": {
        "coordinates": [
          114.26192,
          30.54437
        ],
        "type": "Point"
      },
      "type": "Feature",
      "label": "\u6c49\u9633\u5e9c",
      "id": "131",
      "properties": {
        "source": "MDYZK",
        "gazetteer_uri": "",
        "collection": "courier",
        "gazetteer_label": "HANYANGFU Hubei (\u6c49\u9633\u5e9c)",
        "status": "Y",
        "comment": ""
      }
    },
    {
      "geometry": {
        "coordinates": [
          114.27162,
          29.89248
        ],
        "type": "Point"
      },
      "type": "Feature",
      "label": "\u54b8\u5b81\u9a7f",
      "id": "132",
      "properties": {
        "source": "MDYZK",
        "gazetteer_uri": "",
        "collection": "courier",
        "gazetteer_label": "XIANNING Hubei (\u54b8\u5b81\u9a7f)",
        "status": "Y",
        "comment": ""
      }
    },
    {
      "geometry": {
        "coordinates": [
          114.30209,
          25.11884
        ],
        "type": "Point"
      },
      "type": "Feature",
      "label": "\u51cc\u6c5f\u9a7f",
      "id": "133",
      "properties": {
        "source": "MDYZK",
        "gazetteer_uri": "",
        "collection": "courier",
        "gazetteer_label": "LINGJIANG Guangdong (\u51cc\u6c5f\u9a7f)",
        "status": "Y",
        "comment": ""
      }
    },
    {
      "geometry": {
        "coordinates": [
          114.30772,
          38.08311
        ],
        "type": "Point"
      },
      "type": "Feature",
      "label": "\u9547\u5b81\u9a7f",
      "id": "134",
      "properties": {
        "source": "MDYZK",
        "gazetteer_uri": "",
        "collection": "courier",
        "gazetteer_label": "ZHENNING Hebei (\u9547\u5b81\u9a7f)",
        "status": "Y",
        "comment": ""
      }
    },
    {
      "geometry": {
        "coordinates": [
          114.31919,
          30.54139
        ],
        "type": "Point"
      },
      "type": "Feature",
      "label": "\u6b66\u660c\u5e9c",
      "id": "135",
      "properties": {
        "source": "MDYZK",
        "gazetteer_uri": "",
        "collection": "courier",
        "gazetteer_label": "WUCHANGFU Hubei (\u6b66\u660c\u5e9c)",
        "status": "N",
        "comment": ""
      }
    },
    {
      "geometry": {
        "coordinates": [
          114.34333,
          34.78548
        ],
        "type": "Point"
      },
      "type": "Feature",
      "label": "\u5927\u6881\u9a7f",
      "id": "136",
      "properties": {
        "source": "MDYZK",
        "gazetteer_uri": "",
        "collection": "courier",
        "gazetteer_label": "DALIANGYI Henan (\u5927\u6881\u9a7f)",
        "status": "N",
        "comment": ""
      }
    },
    {
      "geometry": {
        "coordinates": [
          114.3455,
          36.09834
        ],
        "type": "Point"
      },
      "type": "Feature",
      "label": "\u90ba\u57ce\u9a7f",
      "id": "137",
      "properties": {
        "source": "MDYZK",
        "gazetteer_uri": "",
        "collection": "courier",
        "gazetteer_label": "YECHENG Henan (\u90ba\u57ce\u9a7f)",
        "status": "Y",
        "comment": ""
      }
    },
    {
      "geometry": {
        "coordinates": [
          114.35057,
          25.39995
        ],
        "type": "Point"
      },
      "type": "Feature",
      "label": "\u6a2a\u6d66\u9a7f",
      "id": "138",
      "properties": {
        "source": "MDYZK",
        "gazetteer_uri": "",
        "collection": "courier",
        "gazetteer_label": "HENGPUYI Jiangxi (\u6a2a\u6d66\u9a7f)",
        "status": "N",
        "comment": ""
      }
    },
    {
      "geometry": {
        "coordinates": [
          114.35269,
          35.92552
        ],
        "type": "Point"
      },
      "type": "Feature",
      "label": "\u5b9c\u6c9f",
      "id": "139",
      "properties": {
        "source": "MDYZK",
        "gazetteer_uri": "",
        "collection": "courier",
        "gazetteer_label": "YIGOU Henan (\u5b9c\u6c9f)",
        "status": "Y",
        "comment": ""
      }
    },
    {
      "geometry": {
        "coordinates": [
          114.37424,
          36.35904
        ],
        "type": "Point"
      },
      "type": "Feature",
      "label": "\u78c1\u5dde",
      "id": "140",
      "properties": {
        "source": "PA_1903",
        "gazetteer_uri": "",
        "collection": "courier",
        "gazetteer_label": "CIZHOU Hebei (\u78c1\u5dde)",
        "status": "P",
        "comment": ""
      }
    },
    {
      "geometry": {
        "coordinates": [
          114.47204,
          36.59348
        ],
        "type": "Point"
      },
      "type": "Feature",
      "label": "\u4ece\u53f0\u9a7f",
      "id": "141",
      "properties": {
        "source": "MDYZK",
        "gazetteer_uri": "",
        "collection": "courier",
        "gazetteer_label": "CONGTAI Hebei (\u4ece\u53f0\u9a7f)",
        "status": "Y",
        "comment": ""
      }
    },
    {
      "geometry": {
        "coordinates": [
          114.49426,
          37.06636
        ],
        "type": "Point"
      },
      "type": "Feature",
      "label": "\u9f99\u5188\u9a7f",
      "id": "142",
      "properties": {
        "source": "MDYZK",
        "gazetteer_uri": "",
        "collection": "courier",
        "gazetteer_label": "LONGGANG Hebei (\u9f99\u5188\u9a7f)",
        "status": "Y",
        "comment": ""
      }
    },
    {
      "geometry": {
        "coordinates": [
          114.51186,
          37.295
        ],
        "type": "Point"
      },
      "type": "Feature",
      "label": "\u4e2d\u4e18\u9a7f",
      "id": "143",
      "properties": {
        "source": "MDYZK",
        "gazetteer_uri": "",
        "collection": "courier",
        "gazetteer_label": "ZHONGQIUYI Hebei (\u4e2d\u4e18\u9a7f)",
        "status": "N",
        "comment": ""
      }
    },
    {
      "geometry": {
        "coordinates": [
          114.56364,
          38.14011
        ],
        "type": "Point"
      },
      "type": "Feature",
      "label": "\u6052\u5c71\u9a7f",
      "id": "144",
      "properties": {
        "source": "MDYZK",
        "gazetteer_uri": "",
        "collection": "courier",
        "gazetteer_label": "HENGSHANYI Hebei (\u6052\u5c71\u9a7f)",
        "status": "L",
        "comment": ""
      }
    },
    {
      "geometry": {
        "coordinates": [
          114.65269,
          37.88578
        ],
        "type": "Point"
      },
      "type": "Feature",
      "label": "\u5173\u57ce\u9a7f",
      "id": "145",
      "properties": {
        "source": "MDYZK",
        "gazetteer_uri": "",
        "collection": "courier",
        "gazetteer_label": "GUANCHENG Hebei (\u5173\u57ce\u9a7f)",
        "status": "N",
        "comment": ""
      }
    },
    {
      "geometry": {
        "coordinates": [
          114.68058,
          37.49469
        ],
        "type": "Point"
      },
      "type": "Feature",
      "label": "\u69d0\u6c34\u9a7f",
      "id": "146",
      "properties": {
        "source": "MDYZK",
        "gazetteer_uri": "",
        "collection": "courier",
        "gazetteer_label": "HUAISHUI Hebei (\u69d0\u6c34\u9a7f)",
        "status": "Y",
        "comment": ""
      }
    },
    {
      "geometry": {
        "coordinates": [
          114.68877,
          39.35402
        ],
        "type": "Point"
      },
      "type": "Feature",
      "label": "\u5e7f\u660c",
      "id": "147",
      "properties": {
        "source": "PA_1903",
        "gazetteer_uri": "",
        "collection": "courier",
        "gazetteer_label": "GUANGCHANG Hebei (\u5e7f\u660c)",
        "status": "N",
        "comment": ""
      }
    },
    {
      "geometry": {
        "coordinates": [
          114.74516,
          25.65857
        ],
        "type": "Point"
      },
      "type": "Feature",
      "label": "\u5357\u57dc\u9a7f",
      "id": "148",
      "properties": {
        "source": "MDYZK",
        "gazetteer_uri": "",
        "collection": "courier",
        "gazetteer_label": "NANYE Jiangxi (\u5357\u57dc\u9a7f)",
        "status": "Y",
        "comment": ""
      }
    },
    {
      "geometry": {
        "coordinates": [
          114.77218,
          37.75293
        ],
        "type": "Point"
      },
      "type": "Feature",
      "label": "\u9117\u57ce\u9a7f",
      "id": "149",
      "properties": {
        "source": "MDYZK",
        "gazetteer_uri": "",
        "collection": "courier",
        "gazetteer_label": "ZHAOZHOU Hebei (\u9117\u57ce\u9a7f)",
        "status": "N",
        "comment": ""
      }
    },
    {
      "geometry": {
        "coordinates": [
          114.77968,
          26.46177
        ],
        "type": "Point"
      },
      "type": "Feature",
      "label": "\u4e94\u4e91\u9a7f",
      "id": "150",
      "properties": {
        "source": "MDYZK",
        "gazetteer_uri": "",
        "collection": "courier",
        "gazetteer_label": "WUYUN Jiangxi (\u4e94\u4e91\u9a7f)",
        "status": "Y",
        "comment": ""
      }
    },
    {
      "geometry": {
        "coordinates": [
          114.78761,
          38.39504
        ],
        "type": "Point"
      },
      "type": "Feature",
      "label": "\u897f\u4e50\u9a7f",
      "id": "151",
      "properties": {
        "source": "MDYZK",
        "gazetteer_uri": "",
        "collection": "courier",
        "gazetteer_label": "XILE Hebei (\u897f\u4e50\u9a7f)",
        "status": "N",
        "comment": ""
      }
    },
    {
      "geometry": {
        "coordinates": [
          114.83418,
          38.03671
        ],
        "type": "Point"
      },
      "type": "Feature",
      "label": "\u4f0f\u57ce\u9a7f",
      "id": "152",
      "properties": {
        "source": "MDYZK",
        "gazetteer_uri": "",
        "collection": "courier",
        "gazetteer_label": "FUCHENG Hebei (\u4f0f\u57ce\u9a7f)",
        "status": "Y",
        "comment": ""
      }
    },
    {
      "geometry": {
        "coordinates": [
          114.89487,
          26.7921
        ],
        "type": "Point"
      },
      "type": "Feature",
      "label": "\u767d\u4e0b\u9a7f",
      "id": "153",
      "properties": {
        "source": "MDYZK",
        "gazetteer_uri": "",
        "collection": "courier",
        "gazetteer_label": "BAIXIAYI Jiangxi (\u767d\u4e0b\u9a7f)",
        "status": "N",
        "comment": ""
      }
    },
    {
      "geometry": {
        "coordinates": [
          114.93248,
          25.847
        ],
        "type": "Point"
      },
      "type": "Feature",
      "label": "\u6c34\u897f\u9a7f",
      "id": "154",
      "properties": {
        "source": "MDYZK",
        "gazetteer_uri": "",
        "collection": "courier",
        "gazetteer_label": "SHUIXIYI Jiangxi (\u6c34\u897f\u9a7f)",
        "status": "Y",
        "comment": ""
      }
    },
    {
      "geometry": {
        "coordinates": [
          114.97128,
          27.10324
        ],
        "type": "Point"
      },
      "type": "Feature",
      "label": "\u87ba\u5ddd\u9a7f",
      "id": "155",
      "properties": {
        "source": "MDYZK",
        "gazetteer_uri": "",
        "collection": "courier",
        "gazetteer_label": "LUOCHUAN Jiangxi (\u87ba\u5ddd\u9a7f)",
        "status": "Y",
        "comment": ""
      }
    },
    {
      "geometry": {
        "coordinates": [
          114.97504,
          38.52006
        ],
        "type": "Point"
      },
      "type": "Feature",
      "label": "\u6c38\u5b9a\u9a7f",
      "id": "156",
      "properties": {
        "source": "MDYZK",
        "gazetteer_uri": "",
        "collection": "courier",
        "gazetteer_label": "YONGDING Hebei (\u6c38\u5b9a\u9a7f)",
        "status": "Y",
        "comment": ""
      }
    },
    {
      "geometry": {
        "coordinates": [
          115.13225,
          27.21437
        ],
        "type": "Point"
      },
      "type": "Feature",
      "label": "\u5409\u6c34",
      "id": "157",
      "properties": {
        "source": "MDYZK",
        "gazetteer_uri": "",
        "collection": "courier",
        "gazetteer_label": "JISHUIYI Jiangxi (\u5409\u6c34)",
        "status": "Y",
        "comment": ""
      }
    },
    {
      "geometry": {
        "coordinates": [
          115.13342,
          38.70527
        ],
        "type": "Point"
      },
      "type": "Feature",
      "label": "\u7fdf\u57ce\u9a7f",
      "id": "158",
      "properties": {
        "source": "MDYZK",
        "gazetteer_uri": "",
        "collection": "courier",
        "gazetteer_label": "DICHENG Hebei (\u7fdf\u57ce\u9a7f)",
        "status": "Y",
        "comment": ""
      }
    },
    {
      "geometry": {
        "coordinates": [
          115.14728,
          27.55369
        ],
        "type": "Point"
      },
      "type": "Feature",
      "label": "\u7389\u5ce1\u9a7f",
      "id": "159",
      "properties": {
        "source": "MDYZK",
        "gazetteer_uri": "",
        "collection": "courier",
        "gazetteer_label": "YUXIA Jiangxi (\u7389\u5ce1\u9a7f)",
        "status": "Y",
        "comment": ""
      }
    },
    {
      "geometry": {
        "coordinates": [
          115.3834,
          27.75988
        ],
        "type": "Point"
      },
      "type": "Feature",
      "label": "\u91d1\u5ddd\u9a7f",
      "id": "160",
      "properties": {
        "source": "MDYZK",
        "gazetteer_uri": "",
        "collection": "courier",
        "gazetteer_label": "JINCHUAN Jiangxi (\u91d1\u5ddd\u9a7f)",
        "status": "Y",
        "comment": ""
      }
    },
    {
      "geometry": {
        "coordinates": [
          115.39899,
          28.01557
        ],
        "type": "Point"
      },
      "type": "Feature",
      "label": "\u8427\u6ee9\u9a7f",
      "id": "161",
      "properties": {
        "source": "MDYZK",
        "gazetteer_uri": "",
        "collection": "courier",
        "gazetteer_label": "XIAOTAN Jiangxi (\u8427\u6ee9\u9a7f)",
        "status": "Y",
        "comment": ""
      }
    },
    {
      "geometry": {
        "coordinates": [
          115.50209,
          38.8557
        ],
        "type": "Point"
      },
      "type": "Feature",
      "label": "\u91d1\u53f0\u9a7f",
      "id": "162",
      "properties": {
        "source": "MDYZK",
        "gazetteer_uri": "",
        "collection": "courier",
        "gazetteer_label": "JINTAIYI Hebei (\u91d1\u53f0\u9a7f)",
        "status": "N",
        "comment": ""
      }
    },
    {
      "geometry": {
        "coordinates": [
          115.65739,
          39.01944
        ],
        "type": "Point"
      },
      "type": "Feature",
      "label": "\u767d\u6c9f\u9a7f",
      "id": "163",
      "properties": {
        "source": "MDYZK",
        "gazetteer_uri": "",
        "collection": "courier",
        "gazetteer_label": "BAIGOU Hebei (\u767d\u6c9f\u9a7f)",
        "status": "Y",
        "comment": ""
      }
    },
    {
      "geometry": {
        "coordinates": [
          115.7032,
          39.38615
        ],
        "type": "Point"
      },
      "type": "Feature",
      "label": "\u6d9e\u6c34",
      "id": "164",
      "properties": {
        "source": "PA_1903",
        "gazetteer_uri": "",
        "collection": "courier",
        "gazetteer_label": "LAISHUI Hebei (\u6d9e\u6c34)",
        "status": "B",
        "comment": ""
      }
    },
    {
      "geometry": {
        "coordinates": [
          115.74503,
          29.33056
        ],
        "type": "Point"
      },
      "type": "Feature",
      "label": "\u5fb7\u5b89",
      "id": "165",
      "properties": {
        "source": "MDYZK",
        "gazetteer_uri": "",
        "collection": "courier",
        "gazetteer_label": "DE'AN Jiangxi (\u5fb7\u5b89)",
        "status": "Y",
        "comment": ""
      }
    },
    {
      "geometry": {
        "coordinates": [
          115.76182,
          29.08783
        ],
        "type": "Point"
      },
      "type": "Feature",
      "label": "\u5efa\u660c",
      "id": "166",
      "properties": {
        "source": "MDYZK",
        "gazetteer_uri": "",
        "collection": "courier",
        "gazetteer_label": "JIANCHANG Jiangxi (\u5efa\u660c)",
        "status": "N",
        "comment": ""
      }
    },
    {
      "geometry": {
        "coordinates": [
          115.77419,
          39.26959
        ],
        "type": "Point"
      },
      "type": "Feature",
      "label": "\u5ba3\u5316\u9a7f",
      "id": "167",
      "properties": {
        "source": "MDYZK",
        "gazetteer_uri": "",
        "collection": "courier",
        "gazetteer_label": "XUANHUAYI Hebei (\u5ba3\u5316\u9a7f)",
        "status": "N",
        "comment": ""
      }
    },
    {
      "geometry": {
        "coordinates": [
          115.89772,
          28.6749
        ],
        "type": "Point"
      },
      "type": "Feature",
      "label": "\u5357\u6d66\u9a7f",
      "id": "168",
      "properties": {
        "source": "MDYZK",
        "gazetteer_uri": "",
        "collection": "courier",
        "gazetteer_label": "NANPU Jiangxi (\u5357\u6d66\u9a7f)",
        "status": "Y",
        "comment": ""
      }
    },
    {
      "geometry": {
        "coordinates": [
          115.93494,
          30.0792
        ],
        "type": "Point"
      },
      "type": "Feature",
      "label": "\u4ead\u524d\u9a7f",
      "id": "169",
      "properties": {
        "source": "MDYZK",
        "gazetteer_uri": "",
        "collection": "courier",
        "gazetteer_label": "TINGQIAN Hubei (\u4ead\u524d\u9a7f)",
        "status": "Y",
        "comment": ""
      }
    },
    {
      "geometry": {
        "coordinates": [
          115.96815,
          39.48722
        ],
        "type": "Point"
      },
      "type": "Feature",
      "label": "\u9010\u9e7f\u9a7f",
      "id": "170",
      "properties": {
        "source": "MDYZK",
        "gazetteer_uri": "",
        "collection": "courier",
        "gazetteer_label": "ZHULUYI Hebei (\u9010\u9e7f\u9a7f)",
        "status": "N",
        "comment": ""
      }
    },
    {
      "geometry": {
        "coordinates": [
          115.98568,
          29.72236
        ],
        "type": "Point"
      },
      "type": "Feature",
      "label": "\u6d54\u9633\u9a7f",
      "id": "171",
      "properties": {
        "source": "MDYZK",
        "gazetteer_uri": "",
        "collection": "courier",
        "gazetteer_label": "XUNYANG Jiangxi (\u6d54\u9633\u9a7f)",
        "status": "Y",
        "comment": ""
      }
    },
    {
      "geometry": {
        "coordinates": [
          115.98756,
          39.24595
        ],
        "type": "Point"
      },
      "type": "Feature",
      "label": "\u6c7e\u6c34\u9a7f",
      "id": "172",
      "properties": {
        "source": "MDYZK",
        "gazetteer_uri": "",
        "collection": "courier",
        "gazetteer_label": "FENSHUI Hebei (\u6c7e\u6c34\u9a7f)",
        "status": "N",
        "comment": ""
      }
    },
    {
      "geometry": {
        "coordinates": [
          116.08553,
          38.4357
        ],
        "type": "Point"
      },
      "type": "Feature",
      "label": "\u701b\u6d77\u9a7f",
      "id": "173",
      "properties": {
        "source": "MDYZK",
        "gazetteer_uri": "",
        "collection": "courier",
        "gazetteer_label": "YINGHAIYI Hebei (\u701b\u6d77\u9a7f)",
        "status": "N",
        "comment": ""
      }
    },
    {
      "geometry": {
        "coordinates": [
          116.09048,
          38.70767
        ],
        "type": "Point"
      },
      "type": "Feature",
      "label": "\u90d1\u57ce\u9a7f",
      "id": "174",
      "properties": {
        "source": "MDYZK",
        "gazetteer_uri": "",
        "collection": "courier",
        "gazetteer_label": "ZHENGCHEN Hebei (\u90d1\u57ce\u9a7f)",
        "status": "Y",
        "comment": ""
      }
    },
    {
      "geometry": {
        "coordinates": [
          116.0927,
          38.97588
        ],
        "type": "Point"
      },
      "type": "Feature",
      "label": "\u5f52\u4e49\u9a7f",
      "id": "175",
      "properties": {
        "source": "MDYZK",
        "gazetteer_uri": "",
        "collection": "courier",
        "gazetteer_label": "GUIYI Hebei (\u5f52\u4e49\u9a7f)",
        "status": "N",
        "comment": ""
      }
    },
    {
      "geometry": {
        "coordinates": [
          116.21667,
          30.36667
        ],
        "type": "Point"
      },
      "type": "Feature",
      "label": "\u67ab\u9999\u9a7f",
      "id": "176",
      "properties": {
        "source": "MDYZK",
        "gazetteer_uri": "",
        "collection": "courier",
        "gazetteer_label": "FENGXIANGYI Anhui (\u67ab\u9999\u9a7f)",
        "status": "Y",
        "comment": ""
      }
    },
    {
      "geometry": {
        "coordinates": [
          116.1149,
          38.1907
        ],
        "type": "Point"
      },
      "type": "Feature",
      "label": "\u4e50\u57ce\u9a7f",
      "id": "177",
      "properties": {
        "source": "MDYZK",
        "gazetteer_uri": "",
        "collection": "courier",
        "gazetteer_label": "LECHENG Hebei (\u4e50\u57ce\u9a7f)",
        "status": "Y",
        "comment": ""
      }
    },
    {
      "geometry": {
        "coordinates": [
          116.13558,
          39.74125
        ],
        "type": "Point"
      },
      "type": "Feature",
      "label": "\u56fa\u8282\u9a7f",
      "id": "178",
      "properties": {
        "source": "MDYZK",
        "gazetteer_uri": "",
        "collection": "courier",
        "gazetteer_label": "LANGXIANG Beijing (\u56fa\u8282\u9a7f)",
        "status": "Y",
        "comment": ""
      }
    },
    {
      "geometry": {
        "coordinates": [
          116.14471,
          37.86818
        ],
        "type": "Point"
      },
      "type": "Feature",
      "label": "\u961c\u57ce\u9a7f",
      "id": "179",
      "properties": {
        "source": "MDYZK",
        "gazetteer_uri": "",
        "collection": "courier",
        "gazetteer_label": "FUCHENG Hebei (\u961c\u57ce\u9a7f)",
        "status": "Y",
        "comment": ""
      }
    },
    {
      "geometry": {
        "coordinates": [
          116.231,
          36.86162
        ],
        "type": "Point"
      },
      "type": "Feature",
      "label": "\u9c7c\u4e18\u9a7f",
      "id": "180",
      "properties": {
        "source": "MDYZK",
        "gazetteer_uri": "",
        "collection": "courier",
        "gazetteer_label": "YUQIU Shandong (\u9c7c\u4e18\u9a7f)",
        "status": "Y",
        "comment": ""
      }
    },
    {
      "geometry": {
        "coordinates": [
          116.25023,
          36.58662
        ],
        "type": "Point"
      },
      "type": "Feature",
      "label": "\u830c\u5c71\u9a7f",
      "id": "181",
      "properties": {
        "source": "MDYZK",
        "gazetteer_uri": "",
        "collection": "courier",
        "gazetteer_label": "CHISHAN Shandong (\u830c\u5c71\u9a7f)",
        "status": "Y",
        "comment": ""
      }
    },
    {
      "geometry": {
        "coordinates": [
          116.2581,
          37.68801
        ],
        "type": "Point"
      },
      "type": "Feature",
      "label": "\u4e1c\u5149\u9a7f",
      "id": "182",
      "properties": {
        "source": "MDYZK",
        "gazetteer_uri": "",
        "collection": "courier",
        "gazetteer_label": "DONGGUANG Hebei (\u4e1c\u5149\u9a7f)",
        "status": "Y",
        "comment": ""
      }
    },
    {
      "geometry": {
        "coordinates": [
          116.26508,
          30.42006
        ],
        "type": "Point"
      },
      "type": "Feature",
      "label": "\u592a\u6e56",
      "id": "183",
      "properties": {
        "source": "MDYZK",
        "gazetteer_uri": "",
        "collection": "courier",
        "gazetteer_label": "TAIHU Anhui (\u592a\u6e56)",
        "status": "Y",
        "comment": ""
      }
    },
    {
      "geometry": {
        "coordinates": [
          116.27579,
          37.15112
        ],
        "type": "Point"
      },
      "type": "Feature",
      "label": "\u592a\u5e73\u9a7f",
      "id": "184",
      "properties": {
        "source": "MDYZK",
        "gazetteer_uri": "",
        "collection": "courier",
        "gazetteer_label": "TAIPING Shandong (\u592a\u5e73\u9a7f)",
        "status": "Y",
        "comment": ""
      }
    },
    {
      "geometry": {
        "coordinates": [
          116.28512,
          38.01704
        ],
        "type": "Point"
      },
      "type": "Feature",
      "label": "\u5bcc\u5e84\u9a7f",
      "id": "185",
      "properties": {
        "source": "MDYZK",
        "gazetteer_uri": "",
        "collection": "courier",
        "gazetteer_label": "FUZHUANG Hebei (\u5bcc\u5e84\u9a7f)",
        "status": "Y",
        "comment": ""
      }
    },
    {
      "geometry": {
        "coordinates": [
          116.28741,
          37.45164
        ],
        "type": "Point"
      },
      "type": "Feature",
      "label": "\u5b89\u5fb7",
      "id": "186",
      "properties": {
        "source": "MDYZK",
        "gazetteer_uri": "",
        "collection": "courier",
        "gazetteer_label": "ANDE Shandong (\u5b89\u5fb7)",
        "status": "Y",
        "comment": ""
      }
    },
    {
      "geometry": {
        "coordinates": [
          116.29917,
          35.91034
        ],
        "type": "Point"
      },
      "type": "Feature",
      "label": "\u4e1c\u539f\u9a7f",
      "id": "187",
      "properties": {
        "source": "MDYZK",
        "gazetteer_uri": "",
        "collection": "courier",
        "gazetteer_label": "DONGYUAN Shandong (\u4e1c\u539f\u9a7f)",
        "status": "Y",
        "comment": ""
      }
    },
    {
      "geometry": {
        "coordinates": [
          116.368,
          39.93143
        ],
        "type": "Point"
      },
      "type": "Feature",
      "label": "\u4f1a\u540c\u9986",
      "id": "188",
      "properties": {
        "source": "MDYZK",
        "gazetteer_uri": "",
        "collection": "courier",
        "gazetteer_label": "HUITONGGUAN Beijing (\u4f1a\u540c\u9986)",
        "status": "N",
        "comment": ""
      }
    },
    {
      "geometry": {
        "coordinates": [
          116.42907,
          37.15773
        ],
        "type": "Point"
      },
      "type": "Feature",
      "label": "\u6843\u6e90\u9a7f",
      "id": "189",
      "properties": {
        "source": "MDYZK",
        "gazetteer_uri": "",
        "collection": "courier",
        "gazetteer_label": "TAOYUAN Shandong (\u6843\u6e90\u9a7f)",
        "status": "Y",
        "comment": ""
      }
    },
    {
      "geometry": {
        "coordinates": [
          116.48556,
          35.72985
        ],
        "type": "Point"
      },
      "type": "Feature",
      "label": "\u65b0\u6865\u9a7f",
      "id": "190",
      "properties": {
        "source": "MDYZK",
        "gazetteer_uri": "",
        "collection": "courier",
        "gazetteer_label": "XINQIAO Shandong (\u65b0\u6865\u9a7f)",
        "status": "Y",
        "comment": ""
      }
    },
    {
      "geometry": {
        "coordinates": [
          116.5672,
          30.63035
        ],
        "type": "Point"
      },
      "type": "Feature",
      "label": "\u9752\u53e3\u9a7f",
      "id": "191",
      "properties": {
        "source": "MDYZK",
        "gazetteer_uri": "",
        "collection": "courier",
        "gazetteer_label": "QINGKOU Anhui (\u9752\u53e3\u9a7f)",
        "status": "Y",
        "comment": ""
      }
    },
    {
      "geometry": {
        "coordinates": [
          116.65239,
          36.94536
        ],
        "type": "Point"
      },
      "type": "Feature",
      "label": "\u5218\u666e\u9a7f",
      "id": "192",
      "properties": {
        "source": "MDYZK",
        "gazetteer_uri": "",
        "collection": "courier",
        "gazetteer_label": "LIUPU Shandong (\u5218\u666e\u9a7f)",
        "status": "Y",
        "comment": ""
      }
    },
    {
      "geometry": {
        "coordinates": [
          116.65881,
          39.90592
        ],
        "type": "Point"
      },
      "type": "Feature",
      "label": "\u6f5e\u6cb3\u9a7f",
      "id": "193",
      "properties": {
        "source": "MDYZK",
        "gazetteer_uri": "",
        "collection": "courier",
        "gazetteer_label": "LUHE Beijing (\u6f5e\u6cb3\u9a7f)",
        "status": "Y",
        "comment": ""
      }
    },
    {
      "geometry": {
        "coordinates": [
          116.72324,
          36.55283
        ],
        "type": "Point"
      },
      "type": "Feature",
      "label": "\u4e1c\u5317\u7f6e\u9a7f",
      "id": "194",
      "properties": {
        "source": "MDYZK",
        "gazetteer_uri": "",
        "collection": "courier",
        "gazetteer_label": "DONGBEIZHIYI Shandong (\u4e1c\u5317\u7f6e\u9a7f)",
        "status": "Y",
        "comment": ""
      }
    },
    {
      "geometry": {
        "coordinates": [
          116.78063,
          36.70108
        ],
        "type": "Point"
      },
      "type": "Feature",
      "label": "\u5bb4\u57ce\u9a7f",
      "id": "195",
      "properties": {
        "source": "MDYZK",
        "gazetteer_uri": "",
        "collection": "courier",
        "gazetteer_label": "YANCHENG Shandong (\u5bb4\u57ce\u9a7f)",
        "status": "Y",
        "comment": ""
      }
    },
    {
      "geometry": {
        "coordinates": [
          116.8237,
          35.5567
        ],
        "type": "Point"
      },
      "type": "Feature",
      "label": "\u660c\u5e73\u9a7f",
      "id": "196",
      "properties": {
        "source": "MDYZK",
        "gazetteer_uri": "",
        "collection": "courier",
        "gazetteer_label": "CHANGPINGYI Shandong (\u660c\u5e73\u9a7f)",
        "status": "Y",
        "comment": ""
      }
    },
    {
      "geometry": {
        "coordinates": [
          116.93854,
          31.45645
        ],
        "type": "Point"
      },
      "type": "Feature",
      "label": "\u8212\u57ce\u9a7f",
      "id": "197",
      "properties": {
        "source": "MDYZK",
        "gazetteer_uri": "",
        "collection": "courier",
        "gazetteer_label": "SHUCHENG Anhui (\u8212\u57ce\u9a7f)",
        "status": "Y",
        "comment": ""
      }
    },
    {
      "geometry": {
        "coordinates": [
          116.93861,
          31.05228
        ],
        "type": "Point"
      },
      "type": "Feature",
      "label": "\u5415\u4ead\u9a7f",
      "id": "198",
      "properties": {
        "source": "MDYZK",
        "gazetteer_uri": "",
        "collection": "courier",
        "gazetteer_label": "LVTING Anhui (\u5415\u4ead\u9a7f)",
        "status": "Y",
        "comment": ""
      }
    },
    {
      "geometry": {
        "coordinates": [
          116.96844,
          35.40382
        ],
        "type": "Point"
      },
      "type": "Feature",
      "label": "\u90be\u57ce\u9a7f",
      "id": "199",
      "properties": {
        "source": "MDYZK",
        "gazetteer_uri": "",
        "collection": "courier",
        "gazetteer_label": "ZHU Shandong (\u90be\u57ce\u9a7f)",
        "status": "Y",
        "comment": ""
      }
    },
    {
      "geometry": {
        "coordinates": [
          116.9714,
          33.64237
        ],
        "type": "Point"
      },
      "type": "Feature",
      "label": "\u7762\u9633\u9a7f",
      "id": "200",
      "properties": {
        "source": "MDYZK",
        "gazetteer_uri": "",
        "collection": "courier",
        "gazetteer_label": "SUIYANGYI Anhui (\u7762\u9633\u9a7f)",
        "status": "N",
        "comment": ""
      }
    },
    {
      "geometry": {
        "coordinates": [
          117.00149,
          36.65013
        ],
        "type": "Point"
      },
      "type": "Feature",
      "label": "\u8c2d\u57ce\u9a7f",
      "id": "201",
      "properties": {
        "source": "MDYZK",
        "gazetteer_uri": "",
        "collection": "courier",
        "gazetteer_label": "TANGCHENGYI Shandong (\u8c2d\u57ce\u9a7f)",
        "status": "N",
        "comment": ""
      }
    },
    {
      "geometry": {
        "coordinates": [
          117.07612,
          39.98279
        ],
        "type": "Point"
      },
      "type": "Feature",
      "label": "\u4e09\u6cb3\u9a7f",
      "id": "202",
      "properties": {
        "source": "MDYZK",
        "gazetteer_uri": "",
        "collection": "courier",
        "gazetteer_label": "SANHE Hebei (\u4e09\u6cb3\u9a7f)",
        "status": "Y",
        "comment": ""
      }
    },
    {
      "geometry": {
        "coordinates": [
          117.15816,
          35.08609
        ],
        "type": "Point"
      },
      "type": "Feature",
      "label": "\u6ed5\u9633\u9a7f",
      "id": "203",
      "properties": {
        "source": "MDYZK",
        "gazetteer_uri": "",
        "collection": "courier",
        "gazetteer_label": "TENGYANG Shandong (\u6ed5\u9633\u9a7f)",
        "status": "Y",
        "comment": ""
      }
    },
    {
      "geometry": {
        "coordinates": [
          117.18768,
          34.26963
        ],
        "type": "Point"
      },
      "type": "Feature",
      "label": "\u5229\u56fd\u76d1\u9a7f",
      "id": "204",
      "properties": {
        "source": "MDYZK",
        "gazetteer_uri": "",
        "collection": "courier",
        "gazetteer_label": "LIGUOJIAN Jiangsu (\u5229\u56fd\u76d1\u9a7f)",
        "status": "N",
        "comment": ""
      }
    },
    {
      "geometry": {
        "coordinates": [
          117.27646,
          31.86446
        ],
        "type": "Point"
      },
      "type": "Feature",
      "label": "\u91d1\u6597\u9a7f",
      "id": "205",
      "properties": {
        "source": "MDYZK",
        "gazetteer_uri": "",
        "collection": "courier",
        "gazetteer_label": "JINDOUYI Anhui (\u91d1\u6597\u9a7f)",
        "status": "Y",
        "comment": ""
      }
    },
    {
      "geometry": {
        "coordinates": [
          117.40182,
          40.04387
        ],
        "type": "Point"
      },
      "type": "Feature",
      "label": "\u6e14\u9633\u9a7f",
      "id": "206",
      "properties": {
        "source": "MDYZK",
        "gazetteer_uri": "",
        "collection": "courier",
        "gazetteer_label": "YUYANG Tianjin (\u6e14\u9633\u9a7f)",
        "status": "Y",
        "comment": ""
      }
    },
    {
      "geometry": {
        "coordinates": [
          117.4586,
          33.09573
        ],
        "type": "Point"
      },
      "type": "Feature",
      "label": "\u738b\u5e84\u9a7f",
      "id": "207",
      "properties": {
        "source": "MDYZK",
        "gazetteer_uri": "",
        "collection": "courier",
        "gazetteer_label": "WANGZHUAN Anhui (\u738b\u5e84\u9a7f)",
        "status": "Y",
        "comment": ""
      }
    },
    {
      "geometry": {
        "coordinates": [
          117.31171,
          33.31458
        ],
        "type": "Point"
      },
      "type": "Feature",
      "label": "\u56fa\u9547\u9a7f",
      "id": "208",
      "properties": {
        "source": "MDYZK",
        "gazetteer_uri": "",
        "collection": "courier",
        "gazetteer_label": "GUZHENYI Anhui (\u56fa\u9547\u9a7f)",
        "status": "Y",
        "comment": ""
      }
    },
    {
      "geometry": {
        "coordinates": [
          117.64,
          32.9
        ],
        "type": "Point"
      },
      "type": "Feature",
      "label": "\u7ea2\u5fc3\u9a7f",
      "id": "209",
      "properties": {
        "source": "MDYZK",
        "gazetteer_uri": "",
        "collection": "courier",
        "gazetteer_label": "HONGXIN Anhui (\u7ea2\u5fc3\u9a7f)",
        "status": "Y",
        "comment": ""
      }
    },
    {
      "geometry": {
        "coordinates": [
          117.67569,
          32.53025
        ],
        "type": "Point"
      },
      "type": "Feature",
      "label": "\u5b9a\u8fdc",
      "id": "210",
      "properties": {
        "source": "MDYZK",
        "gazetteer_uri": "",
        "collection": "courier",
        "gazetteer_label": "DINGYUAN Anhui (\u5b9a\u8fdc)",
        "status": "Y",
        "comment": ""
      }
    },
    {
      "geometry": {
        "coordinates": [
          117.75478,
          39.88367
        ],
        "type": "Point"
      },
      "type": "Feature",
      "label": "\u9633\u6a0a\u9a7f",
      "id": "211",
      "properties": {
        "source": "MDYZK",
        "gazetteer_uri": "",
        "collection": "courier",
        "gazetteer_label": "YANGFAN Hebei (\u9633\u6a0a\u9a7f)",
        "status": "Y",
        "comment": ""
      }
    },
    {
      "geometry": {
        "coordinates": [
          117.9405,
          32.51547
        ],
        "type": "Point"
      },
      "type": "Feature",
      "label": "\u6c60\u6cb3\u9a7f",
      "id": "212",
      "properties": {
        "source": "MDYZK",
        "gazetteer_uri": "",
        "collection": "courier",
        "gazetteer_label": "CHIHE Anhui (\u6c60\u6cb3\u9a7f)",
        "status": "Y",
        "comment": ""
      }
    },
    {
      "geometry": {
        "coordinates": [
          118.10537,
          27.33988
        ],
        "type": "Point"
      },
      "type": "Feature",
      "label": "\u5efa\u6eaa\u9a7f",
      "id": "213",
      "properties": {
        "source": "MDYZK",
        "gazetteer_uri": "",
        "collection": "courier",
        "gazetteer_label": "JIANXI Fujian (\u5efa\u6eaa\u9a7f)",
        "status": "Y",
        "comment": ""
      }
    },
    {
      "geometry": {
        "coordinates": [
          118.1349,
          39.8276
        ],
        "type": "Point"
      },
      "type": "Feature",
      "label": "\u4e49\u4e30\u9a7f",
      "id": "214",
      "properties": {
        "source": "MDYZK",
        "gazetteer_uri": "",
        "collection": "courier",
        "gazetteer_label": "YIFENG Hebei (\u4e49\u4e30\u9a7f)",
        "status": "Y",
        "comment": ""
      }
    },
    {
      "geometry": {
        "coordinates": [
          118.16918,
          26.64217
        ],
        "type": "Point"
      },
      "type": "Feature",
      "label": "\u5251\u6d66\u9a7f",
      "id": "215",
      "properties": {
        "source": "MDYZK",
        "gazetteer_uri": "",
        "collection": "courier",
        "gazetteer_label": "JIANPUYI Fujian (\u5251\u6d66\u9a7f)",
        "status": "Y",
        "comment": ""
      }
    },
    {
      "geometry": {
        "coordinates": [
          118.30416,
          32.31699
        ],
        "type": "Point"
      },
      "type": "Feature",
      "label": "\u5927\u67f3\u6811\u9a7f",
      "id": "217",
      "properties": {
        "source": "MDYZK",
        "gazetteer_uri": "",
        "collection": "courier",
        "gazetteer_label": "DALIUSHU Anhui (\u5927\u67f3\u6811\u9a7f)",
        "status": "N",
        "comment": ""
      }
    },
    {
      "geometry": {
        "coordinates": [
          118.32378,
          27.03886
        ],
        "type": "Point"
      },
      "type": "Feature",
      "label": "\u57ce\u897f\u9a7f",
      "id": "218",
      "properties": {
        "source": "MDYZK",
        "gazetteer_uri": "",
        "collection": "courier",
        "gazetteer_label": "CHENGXIYI Fujian (\u57ce\u897f\u9a7f)",
        "status": "N",
        "comment": ""
      }
    },
    {
      "geometry": {
        "coordinates": [
          118.6176,
          32.06487
        ],
        "type": "Point"
      },
      "type": "Feature",
      "label": "\u6c5f\u4e1c\u9a7f",
      "id": "220",
      "properties": {
        "source": "MDYZK",
        "gazetteer_uri": "",
        "collection": "courier",
        "gazetteer_label": "JIANGDONGYI Jiangsu (\u6c5f\u4e1c\u9a7f)",
        "status": "L",
        "comment": ""
      }
    },
    {
      "geometry": {
        "coordinates": [
          118.6751,
          26.42891
        ],
        "type": "Point"
      },
      "type": "Feature",
      "label": "\u9ec4\u7530\u9a7f",
      "id": "222",
      "properties": {
        "source": "MDYZK",
        "gazetteer_uri": "",
        "collection": "courier",
        "gazetteer_label": "HUANGTIAN Fujian (\u9ec4\u7530\u9a7f)",
        "status": "Y",
        "comment": ""
      }
    },
    {
      "geometry": {
        "coordinates": [
          118.46919,
          39.8664
        ],
        "type": "Point"
      },
      "type": "Feature",
      "label": "\u4e03\u5bb6\u5cad\u9a7f",
      "id": "223",
      "properties": {
        "source": "MDYZK",
        "gazetteer_uri": "",
        "collection": "courier",
        "gazetteer_label": "QIJIALINGYI Hebei (\u4e03\u5bb6\u5cad\u9a7f)",
        "status": "Y",
        "comment": ""
      }
    },
    {
      "geometry": {
        "coordinates": [
          118.76899,
          32.05256
        ],
        "type": "Point"
      },
      "type": "Feature",
      "label": "\u6c5f\u5b81\u9a7f",
      "id": "224",
      "properties": {
        "source": "MDYZK",
        "gazetteer_uri": "",
        "collection": "courier",
        "gazetteer_label": "JIANGNINGYI Jiangsu (\u6c5f\u5b81\u9a7f)",
        "status": "N",
        "comment": ""
      }
    },
    {
      "geometry": {
        "coordinates": [
          118.862,
          39.877
        ],
        "type": "Point"
      },